index,verbatimScientificName,locality,stateProvince,decimalLatitude,decimalLongitude,eventDate,basisOfRecord,institutionCode
0,Sylvilagus floridanus,,Coahuila,25.373665,-100.495367,2014-05-16,HUMAN_OBSERVATION,iNaturalist
1,Lepus californicus,,Nuevo León,25.084744,-100.714545,2014-06-01,HUMAN_OBSERVATION,iNaturalist
2,Lepus californicus,,Nuevo León,25.087698,-100.713322,2014-06-01,HUMAN_OBSERVATION,iNaturalist
3,Sylvilagus audubonii,,Nuevo León,25.060069,-100.722721,2014-06-01,HUMAN_OBSERVATION,iNaturalist
4,Lepus californicus,12 km S of Camacho,Zacatecas,22.3022271,-103.390215,1977-07-11,PRESERVED_SPECIMEN,MSU
5,Lepus californicus,3 km W of San Felipe de Nuevo Mercurio (Rancho San Marcos),Zacatecas,24.2290052,-102.1812157,1977-07-13,PRESERVED_SPECIMEN,MSU
6,Sylvilagus floridanus,5 mi. W of Huichopan,Hidalgo,20.3752943,-99.726788,1964-07-15,PRESERVED_SPECIMEN,MSU
7,Sylvilagus audubonii parvulus,6.5 mi. W Nadadores,Coahuila,27.0294563,-101.6864507,1959-07-25,PRESERVED_SPECIMEN,MSU
8,Lepus californicus,32 km SW of Caopas,Zacatecas,24.5768521,-102.3809491,1977-07-11,PRESERVED_SPECIMEN,MSU
9,Lepus californicus,9.5 km E of La Colorada,Zacatecas,23.3834852,-103.6704204,1978-07-09,PRESERVED_SPECIMEN,MSU
10,Sylvilagus floridanus chapmani,7 mi. W La Pesca,Tamaulipas,23.7873725,-97.8831455,1961-08-11,PRESERVED_SPECIMEN,MSU
13,Sylvilagus audubonii parvulus,6 mi. N. Chocolate,Durango,25.3815417,-103.6313447,1961-07-21,PRESERVED_SPECIMEN,MSU
15,Sylvilagus audubonii parvulus,10 mi. S Cuatro,Coahuila,26.8406069,-102.0668741,1959-08-01,PRESERVED_SPECIMEN,MSU
16,Lepus californicus,3 km W of San Felipe de Nuevo Mercurio (Rancho San Marcos),Zacatecas,24.2290052,-102.1812157,1977-07-13,PRESERVED_SPECIMEN,MSU
19,Sylvilagus audubonii minor,12 mi. NW La Resolana,Durango,26.2265561,-105.1254176,1960-07-14,PRESERVED_SPECIMEN,MSU
20,Sylvilagus audubonii parvulus,Hda. Atotonilco,Durango,24.7375879,-103.8363465,1968-04-24,PRESERVED_SPECIMEN,MSU
21,Sylvilagus audubonii,3 km W of San Felipe de Nuevo Mercurio (Rancho San Marcos),Zacatecas,24.2290052,-102.1812157,1977-07-11,PRESERVED_SPECIMEN,MSU
23,Lepus californicus,1.5 mi. W Bermejillo,Durango,25.8883825,-103.6442845,1959-08-10,PRESERVED_SPECIMEN,MSU
24,Lepus alleni,1 mi. N Mazatlan,Sinaloa,23.2506591,-106.4165772,1961-08-04,PRESERVED_SPECIMEN,MSU
25,Sylvilagus floridanus,6 mi. NW La Pila,Durango,24.179906,-104.3503131,1957-07-23,PRESERVED_SPECIMEN,MSU
26,Sylvilagus audubonii,6 mi. NW La Pila,Durango,24.179906,-104.3503131,1957-07-23,PRESERVED_SPECIMEN,MSU
27,Sylvilagus audubonii parvulus,6.5 mi. W Nadadores,Coahuila,27.0294563,-101.6864507,1959-07-26,PRESERVED_SPECIMEN,MSU
28,Sylvilagus floridanus holzneri,"Rancho Las Margaritas, 28 mi. S and 17 mi. W Vicente Guerrero",Durango,23.4696027,-104.3954649,1957-06-28,PRESERVED_SPECIMEN,MSU
29,Sylvilagus audubonii parvulus,40 km ESE of Concepcion del Oro (Canada Astillero),Zacatecas,24.476673,-101.0876246,1978-06-30,PRESERVED_SPECIMEN,MSU
30,Sylvilagus audubonii minor,35 mi. W Mapimi,Durango,25.8333818,-104.3573353,1958-07-01,PRESERVED_SPECIMEN,MSU
31,Sylvilagus floridanus holzneri,"Rancho Las Margaritas, 28 mi. S and 17 mi. W Vicente Guerrero",Durango,23.4696027,-104.3954649,1957-06-28,PRESERVED_SPECIMEN,MSU
33,Lepus californicus,6 mi. NW La Pila,Durango,24.179906,-104.3503131,1957-07-23,PRESERVED_SPECIMEN,MSU
35,Lepus californicus,12 km SE Sabana Grande,Zacatecas,24.4155905,-101.6356635,1976-07-04,PRESERVED_SPECIMEN,MSU
36,Lepus californicus,Villa Ocampa,Durango,26.4416831,-105.5075049,1960-07-14,PRESERVED_SPECIMEN,MSU
37,Sylvilagus audubonii parvulus,6 km E Mazapil,Zacatecas,24.6387109,-101.5011972,1976-07-03,PRESERVED_SPECIMEN,MSU
38,Sylvilagus floridanus orizabae,4 mi. NW of Huitzilac,Morelos,19.0700782,-99.3103845,1964-06-25,PRESERVED_SPECIMEN,MSU
39,Sylvilagus audubonii parvulus,Hacienda Atotonilco,Durango,24.7375879,-103.8363465,1967-08-04,PRESERVED_SPECIMEN,MSU
40,Sylvilagus floridanus chapmani,7 mi. W La Pesca,Tamaulipas,23.7873725,-97.8831455,1961-08-12,PRESERVED_SPECIMEN,MSU
41,Lepus callotis,20 km S of Monte Escobedo,Zacatecas,22.1232144,-103.5604983,1978-07-29,PRESERVED_SPECIMEN,MSU
42,Sylvilagus audubonii parvulus,14 km S of Camacho,Zacatecas,22.2841409,-103.390215,1977-07-11,PRESERVED_SPECIMEN,MSU
43,Sylvilagus floridanus,6 mi. NW La Pila,Durango,24.179906,-104.3503131,1957-07-23,PRESERVED_SPECIMEN,MSU
44,Lepus californicus,"2 Km SW Mezquital, 1450 meters",Durango,23.4606891,-104.4085941,1970-11-15,PRESERVED_SPECIMEN,MSU
45,Sylvilagus floridanus orizabae,"9 mi NW Valparaiso, 8350 feet",Zacatecas,23.5713541,-103.1781006,1970-07-31,PRESERVED_SPECIMEN,MSU
46,Sylvilagus floridanus orizabae,6 km S of Teul de Gonzales Ortega,Zacatecas,21.4093095,-103.461883,1978-08-02,PRESERVED_SPECIMEN,MSU
49,Sylvilagus audubonii minor,7 mi. NNW LaZarca,Durango,25.9294232,-104.7809149,1958-07-07,PRESERVED_SPECIMEN,MSU
50,Sylvilagus audubonii parvulus,9 km NW of Sarteneja,Zacatecas,23.7374113,-101.7669067,1975-07-30,PRESERVED_SPECIMEN,MSU
51,Sylvilagus audubonii minor,7 mi. NNW LaZarca,Durango,25.9294232,-104.7809149,1958-07-05,PRESERVED_SPECIMEN,MSU
52,Sylvilagus audubonii parvulus,13 km WNW of Capriote,Zacatecas,23.6917805,-102.2442069,1978-07-08,PRESERVED_SPECIMEN,MSU
53,Lepus californicus,2 km S of Monte Mariana,Zacatecas,23.3095625,-103.1118828,1978-07-14,PRESERVED_SPECIMEN,MSU
54,Sylvilagus audubonii parvulus,35 km SSE of Concepcion del Oro (Nr. Las Huertas),Zacatecas,24.3226766,-101.3007121,1978-07-02,PRESERVED_SPECIMEN,MSU
57,Romerolagus diazi,2 km W of Paso de Cortez,México,19.0836916,-98.6531471,1964-07-05,PRESERVED_SPECIMEN,MSU
58,Sylvilagus audubonii minor,3 mi. SW of Chocolate,Durango,25.2633693,-103.6622129,1963-07-09,PRESERVED_SPECIMEN,MSU
59,Sylvilagus floridanus,25 km ESE of Jalpa (La Palma),Zacatecas,21.5638379,-102.8163084,1977-07-28,PRESERVED_SPECIMEN,MSU
60,Sylvilagus floridanus orizabae,30 km NE of Jalpa (La Palma),Zacatecas,21.7510596,-102.8157592,1977-07-24,PRESERVED_SPECIMEN,MSU
61,Sylvilagus audubonii parvulus,6 mi. N Chocolate,Durango,25.3815417,-103.6313447,1961-07-21,PRESERVED_SPECIMEN,MSU
62,Sylvilagus floridanus holzneri,"Rancho Las Margaritas, 28 mi. S and 17 mi. W Vicente Guerrero",Durango,23.4696027,-104.3954649,1957-07-03,PRESERVED_SPECIMEN,MSU
63,Lepus californicus,20 km SW of Caopas,Zacatecas,24.6535883,-102.3042086,1977-07-11,PRESERVED_SPECIMEN,MSU
64,Sylvilagus audubonii parvulus,40 km ESE of Concepcion del Oro (Canada Astillero),Zacatecas,24.476673,-101.0876246,1978-07-01,PRESERVED_SPECIMEN,MSU
65,Sylvilagus cunicularius insolitus,4 mi. E of San Blas,Nayarit,21.5399401,-105.2273287,1963-07-16,PRESERVED_SPECIMEN,MSU
66,Sylvilagus audubonii parvulus,13 km WNW of Capriote,Zacatecas,23.6917805,-102.2442069,1978-07-08,PRESERVED_SPECIMEN,MSU
67,Lepus callotis,20 km S of Monte Escobedo,Zacatecas,22.1232144,-103.5604983,1978-07-29,PRESERVED_SPECIMEN,MSU
68,Lepus californicus,2 mi. W La Gacha,Coahuila,28.2039643,-101.624895,1957-08-16,PRESERVED_SPECIMEN,MSU
69,Lepus californicus,"16 mi ENE Villa de Cos, 6650 feet",Zacatecas,23.381199,-102.136759,1971-08-01,PRESERVED_SPECIMEN,MSU
72,Sylvilagus floridanus chapmani,3.5 mi. S of Antiguo Morelos,Tamaulipas,22.4988125,-99.0848355,1963-08-04,PRESERVED_SPECIMEN,MSU
78,Lepus callotis,"Rancho Las Margaritas, 28 mi. S and 17 mi. W Vicente Guerrero",Durango,23.4696027,-104.3954649,1957-07-02,PRESERVED_SPECIMEN,MSU
79,Sylvilagus audubonii parvulus,4 mi. SW La Pila,Durango,24.0741735,-104.3295831,1957-07-26,PRESERVED_SPECIMEN,MSU
80,Sylvilagus audubonii,20 km S of Camacho,Zacatecas,22.2298803,-103.3902147,1977-07-11,PRESERVED_SPECIMEN,MSU
81,Lepus californicus,2 mi. W La Gacha,Coahuila,28.2039643,-101.624895,1957-08-16,PRESERVED_SPECIMEN,MSU
84,Lepus californicus,2 mi. W La Gacha,Coahuila,28.2039643,-101.624895,1957-08-16,PRESERVED_SPECIMEN,MSU
85,Lepus californicus,6 mi. NW La Pila,Durango,24.179906,-104.3503131,1957-07-23,PRESERVED_SPECIMEN,MSU
87,Lepus californicus,7 mi. NNW LaZarca,Durango,25.9294232,-104.7809149,1958-07-05,PRESERVED_SPECIMEN,MSU
88,Sylvilagus audubonii parvulus,15 km NNW of Nieves,Zacatecas,24.1196174,-103.0715695,1978-08-19,PRESERVED_SPECIMEN,MSU
89,Lepus californicus,37 mi. W Mapimi,Durango,25.8333816,-104.386439,1958-07-01,PRESERVED_SPECIMEN,MSU
90,Lepus californicus,10 mi. S Cuatro Cienegas,Coahuila,26.8406069,-102.0668741,1959-08-01,PRESERVED_SPECIMEN,MSU
91,Sylvilagus audubonii parvulus,2 km S of Monte Mariana,Zacatecas,23.3095625,-103.1118828,1978-07-14,PRESERVED_SPECIMEN,MSU
92,Sylvilagus floridanus holzneri,24 mi. SSE Durango,Durango,23.7013673,-104.5363213,1958-07-20,PRESERVED_SPECIMEN,MSU
93,Lepus californicus,7 mi. NNW LaZarca,Durango,25.9294232,-104.7809149,1958-07-07,PRESERVED_SPECIMEN,MSU
95,Lepus californicus,35 mi. W Mapimi,Durango,25.8333818,-104.3573353,1958-07-01,PRESERVED_SPECIMEN,MSU
96,Lepus californicus,3 mi. E Conejos,Durango,22.793228,-104.360476,1958-06-26,PRESERVED_SPECIMEN,MSU
100,Sylvilagus audubonii parvulus,3 km SE of Apizolaya,Zacatecas,24.7959067,-102.2557341,1977-07-06,PRESERVED_SPECIMEN,MSU
101,Sylvilagus audubonii minor,7 mi. NNW LaZarca,Durango,25.9294232,-104.7809149,1958-07-06,PRESERVED_SPECIMEN,MSU
102,Lepus californicus,7 mi. NNW LaZarca,Durango,25.9294232,-104.7809149,1958-07-06,PRESERVED_SPECIMEN,MSU
103,Lepus californicus,7 mi. NNW LaZarca,Durango,25.9294232,-104.7809149,1958-07-06,PRESERVED_SPECIMEN,MSU
104,Sylvilagus audubonii parvulus,27 km S of Camacho,Zacatecas,22.1665761,-103.3902145,1977-07-11,PRESERVED_SPECIMEN,MSU
105,Sylvilagus floridanus,,México,19.581388,-100.211152,2013-08-29,HUMAN_OBSERVATION,iNaturalist
106,Lepus flavigularis,,Oaxaca,16.231961,-94.862153,2011-04-14,HUMAN_OBSERVATION,iNaturalist
107,Lepus alleni,Los Leones,Sinaloa,24.040593,-106.924247,1934-08-10,PRESERVED_SPECIMEN,MLZ
108,Sylvilagus audubonii,"Rio Yaqui, 2 mi W Cocorit",Sonora,27.584006,-110.005394,1933-06-08,PRESERVED_SPECIMEN,MLZ
109,Sylvilagus audubonii,El Orito,Sinaloa,26.943342,-108.30055,1934-03-13,PRESERVED_SPECIMEN,MLZ
110,Sylvilagus floridanus,5 mi SW El Salto,Durango,23.760513,-105.433093,1948-11-15,PRESERVED_SPECIMEN,MLZ
111,Sylvilagus floridanus,Laguna Juanota,Chihuahua,26.488664,-106.47448,1937-07-25,PRESERVED_SPECIMEN,MLZ
112,Sylvilagus floridanus,Lajuela,Colima,19.246099,-104.533169,1943-04-11,PRESERVED_SPECIMEN,MLZ
113,Sylvilagus floridanus,30 mi E Huauchinango,Puebla,20.398607,-97.849852,1942-11-10,PRESERVED_SPECIMEN,MLZ
114,Sylvilagus cunicularius,3 mi NW Tamazulapam,Oaxaca,17.693393,-97.603852,1943-07-07,PRESERVED_SPECIMEN,MLZ
115,Sylvilagus cunicularius,Puerto Vallarta,Jalisco,20.618884,-105.230098,1950-06-19,PRESERVED_SPECIMEN,MLZ
116,Sylvilagus brasiliensis,"Rancho San Martin, 5 mi N Xalapa",Veracruz,19.611402,-96.888724,1939-03-27,PRESERVED_SPECIMEN,MLZ
117,Sylvilagus brasiliensis,17 mi N Poza Rica de Hidalgo,Veracruz,20.783011,-97.477595,1947-11-25,PRESERVED_SPECIMEN,MLZ
118,Sylvilagus floridanus,30 mi E Huauchinango,Puebla,20.398607,-97.849852,1942-11-05,PRESERVED_SPECIMEN,MLZ
119,Sylvilagus insonus,Cerro Tiotepec,Guerrero,17.476865,-100.170976,1947-06-10,PRESERVED_SPECIMEN,MLZ
120,Sylvilagus floridanus,Portezuelo,Hidalgo,20.487173,-99.30606,1940-12-19,PRESERVED_SPECIMEN,MLZ
121,Sylvilagus audubonii,Santo Domingo,San Luis Potosí,22.869053,-100.278894,1946-11-26,PRESERVED_SPECIMEN,MLZ
122,Sylvilagus audubonii,Santo Domingo,San Luis Potosí,22.869053,-100.278894,1946-11-27,PRESERVED_SPECIMEN,MLZ
123,Sylvilagus audubonii,"Rio Nazas, near Abasolo, 110 mi N Durango",Durango,25.311445,-104.655827,1948-12-05,PRESERVED_SPECIMEN,MLZ
124,Sylvilagus audubonii,6 mi S Rioverde,San Luis Potosí,21.786445,-99.928035,1952-04-22,PRESERVED_SPECIMEN,MLZ
125,Sylvilagus audubonii,"Rio Yaqui, 2 mi W Cocorit",Sonora,27.584006,-110.005394,1933-06-09,PRESERVED_SPECIMEN,MLZ
126,Sylvilagus audubonii,San Batauto,Sinaloa,24.570833,-107.578333,1934-02-20,PRESERVED_SPECIMEN,MLZ
127,Sylvilagus audubonii,La Reforma,Sinaloa,25.082065,-108.055973,1934-04-18,PRESERVED_SPECIMEN,MLZ
128,Sylvilagus audubonii,El Fuerte,Sinaloa,26.415321,-108.618325,1933-05-12,PRESERVED_SPECIMEN,MLZ
129,Sylvilagus audubonii,"Rio Yaqui, 2 mi W Cocorit",Sonora,27.584006,-110.005394,1933-06-07,PRESERVED_SPECIMEN,MLZ
130,Romerolagus diazi,N slope Volcan Popocatepetl,México,19.08687,-98.646787,1942-05-23,PRESERVED_SPECIMEN,MLZ
131,Romerolagus diazi,N slope Volcan Popocatepetl,México,19.08687,-98.646787,1942-05-21,PRESERVED_SPECIMEN,MLZ
132,Romerolagus diazi,N slope Volcan Popocatepetl,México,19.08687,-98.646787,1942-05-19,PRESERVED_SPECIMEN,MLZ
133,Romerolagus diazi,N slope Volcan Popocatepetl,México,19.08687,-98.646787,1942-05-23,PRESERVED_SPECIMEN,MLZ
134,Romerolagus diazi,N slope Volcan Popocatepetl,México,19.08687,-98.646787,1942-05-19,PRESERVED_SPECIMEN,MLZ
135,Romerolagus diazi,N slope Volcan Popocatepetl,México,19.08687,-98.646787,1942-05-26,PRESERVED_SPECIMEN,MLZ
136,Romerolagus diazi,N slope Volcan Popocatepetl,México,19.08687,-98.646787,1942-05-25,PRESERVED_SPECIMEN,MLZ
137,Sylvilagus floridanus,El Salto Falls,San Luis Potosí,22.586228,-99.383603,1960-12-26,PRESERVED_SPECIMEN,OMNH
138,Sylvilagus floridanus,El Salto Falls,San Luis Potosí,22.586228,-99.383603,1960-12-26,PRESERVED_SPECIMEN,OMNH
139,Lepus californicus,7 mi E San Roberto,Nuevo León,24.710429,-100.191766,1968-01-20,PRESERVED_SPECIMEN,OMNH
140,Lepus californicus,7 mi E San Roberto,Nuevo León,24.710429,-100.191766,1968-01-20,PRESERVED_SPECIMEN,OMNH
141,Lepus californicus,7 mi E San Roberto,Nuevo León,24.710429,-100.191766,1968-01-20,PRESERVED_SPECIMEN,OMNH
143,Sylvilagus cunicularis,6 mi SE San Antonio,Colima,18.724949,-103.753456,1975-01-10,PRESERVED_SPECIMEN,OMNH
144,Sylvilagus audubonii,12 mi N San Luis Potosi,San Luis Potosí,22.324331,-100.982802,1968-01-24,PRESERVED_SPECIMEN,OMNH
145,Sylvilagus audubonii,,Baja California Sur,24.105394,-110.347538,2013-08-12,HUMAN_OBSERVATION,iNaturalist
146,Lepus californicus,,Baja California Sur,27.96954,-114.079456,2013-06-25,HUMAN_OBSERVATION,iNaturalist
147,Sylvilagus floridanus,,Morelos,18.845743,-99.206818,2013-11-17,HUMAN_OBSERVATION,iNaturalist
148,Sylvilagus floridanus,,Ciudad de México,19.272971,-99.20244,2013-08-02,HUMAN_OBSERVATION,iNaturalist
149,Lepus californicus,,Nuevo León,25.123887,-100.626848,2013-04-26,HUMAN_OBSERVATION,iNaturalist
150,Sylvilagus floridanus,,Nuevo León,23.937271,-99.720669,2009-07-25,HUMAN_OBSERVATION,iNaturalist
151,Lepus californicus,,Nuevo León,23.998799,-100.015068,2013-08-20,HUMAN_OBSERVATION,iNaturalist
155,Sylvilagus floridanus,,México,18.904713,-99.515639,2013-05-28,HUMAN_OBSERVATION,iNaturalist
156,Sylvilagus floridanus,,México,19.717222,-99.199558,2007-05-18,HUMAN_OBSERVATION,iNaturalist
157,Romerolagus diazi,,Ciudad de México,19.058964,-99.110947,2012-05-26,HUMAN_OBSERVATION,iNaturalist
158,Sylvilagus floridanus,,Ciudad de México,19.308333,-99.225,2009-05-17,HUMAN_OBSERVATION,iNaturalist
159,Lepus californicus asellus,,Guanajuato,20.91952,-100.731435,2014-02-02,HUMAN_OBSERVATION,iNaturalist
536,Lepus alleni,"Guaymas, 25 mi N",Sonora,28.2429281,-111.0245436,1954-03-24,PRESERVED_SPECIMEN,PSM
537,Lepus alleni,"Guaymas, 25 mi N",Sonora,28.2429281,-111.0245436,1954-03-24,PRESERVED_SPECIMEN,PSM
541,Sylvilagus bachmani howelli,Sangre de Cristo,Baja California,31.85,-116.116667,1927-06-19,PRESERVED_SPECIMEN,SBMNH
542,Sylvilagus floridanus orizabae,"PABLILLO, 4.5 MI S OF",Nuevo León,24.5296287,-99.9940335,1964-08-25,PRESERVED_SPECIMEN,KU
543,Sylvilagus cunicularius cunicularius,OMILTEMI,Guerrero,17.5573724,-99.6856663,1969-08-02,PRESERVED_SPECIMEN,KU
544,Sylvilagus,QUERENDARO,Michoacán,19.8082617,-100.8858913,1967-06-18,PRESERVED_SPECIMEN,KU
545,Sylvilagus floridanus restrictus,VOLCAN DE FUEGO,Jalisco,19.5622639,-103.6068759,1967-05-31,PRESERVED_SPECIMEN,KU
546,Sylvilagus floridanus restrictus,VOLCAN DE FUEGO,Jalisco,19.5622639,-103.6068759,1967-05-30,PRESERVED_SPECIMEN,KU
547,Sylvilagus cunicularius cunicularius,"JILOTLAN DE LOS DOLORES, 8 MI E OF",Jalisco,19.3711684,-102.9032198,1967-03-12,PRESERVED_SPECIMEN,KU
548,Sylvilagus cunicularius cunicularius,"JILOTLAN DE LOS DOLORES, 8 MI E OF",Jalisco,19.3711684,-102.9032198,1967-03-10,PRESERVED_SPECIMEN,KU
549,Sylvilagus cunicularius cunicularius,"JILOTLAN DE LOS DOLORES, 8 MI E OF",Jalisco,19.3711684,-102.9032198,1967-03-08,PRESERVED_SPECIMEN,KU
550,Sylvilagus cunicularius cunicularius,JILOTLAN DE LOS DOLORES,Jalisco,19.371168,-103.0196345,1967-01-27,PRESERVED_SPECIMEN,KU
551,Sylvilagus cunicularius cunicularius,"JILOTLAN DE LOS DOLORES, 8 MI E OF",Jalisco,19.3711684,-102.9032198,1967-03-08,PRESERVED_SPECIMEN,KU
552,Sylvilagus floridanus restrictus,"TOLIMAN, 12 MI S OF",Jalisco,19.4251823,-103.9127255,1967-04-18,PRESERVED_SPECIMEN,KU
553,Sylvilagus floridanus restrictus,"TOLIMAN, 12 MI S OF",Jalisco,19.4251823,-103.9127255,1967-04-18,PRESERVED_SPECIMEN,KU
554,Sylvilagus floridanus restrictus,"TOLIMAN, 12 MI S OF",Jalisco,19.4251823,-103.9127255,1967-04-18,PRESERVED_SPECIMEN,KU
555,Sylvilagus floridanus restrictus,"TOLIMAN, 12 MI S OF",Jalisco,19.4251823,-103.9127255,1967-04-18,PRESERVED_SPECIMEN,KU
556,Sylvilagus floridanus restrictus,"TOLIMAN, 12 MI S OF",Jalisco,19.4251823,-103.9127255,1967-04-18,PRESERVED_SPECIMEN,KU
557,Sylvilagus floridanus restrictus,"TOLIMAN, 12 MI S OF",Jalisco,19.4251823,-103.9127255,1967-04-16,PRESERVED_SPECIMEN,KU
558,Sylvilagus floridanus restrictus,"TOLIMAN, 12 MI S OF",Jalisco,19.4251823,-103.9127255,1967-04-13,PRESERVED_SPECIMEN,KU
559,Sylvilagus floridanus restrictus,"TOLIMAN, 12 MI S OF",Jalisco,19.4251823,-103.9127255,1967-04-13,PRESERVED_SPECIMEN,KU
560,Sylvilagus floridanus restrictus,"AUTLAN, 20 MI SE OF",Jalisco,19.5656358,-104.1638729,1967-05-02,PRESERVED_SPECIMEN,KU
561,Sylvilagus floridanus restrictus,"AUTLAN, 20 MI SE OF",Jalisco,19.5656358,-104.1638729,1967-04-28,PRESERVED_SPECIMEN,KU
562,Sylvilagus floridanus restrictus,"AUTLAN, 20 MI SE OF",Jalisco,19.5656358,-104.1638729,1967-04-27,PRESERVED_SPECIMEN,KU
563,Sylvilagus floridanus restrictus,"AUTLAN, 20 MI SE OF",Jalisco,19.5656358,-104.1638729,1967-04-27,PRESERVED_SPECIMEN,KU
564,Lepus callotis callotis,TOLIMAN,Jalisco,19.5996441,-103.9127262,1966-10-17,PRESERVED_SPECIMEN,KU
565,Sylvilagus floridanus restrictus,"JIQUILPAN, 5 MI SW OF",Michoacán,19.9427451,-102.7688579,1966-09-26,PRESERVED_SPECIMEN,KU
566,Sylvilagus floridanus subcinctus,"COMANJA DE CORONA, 4.5 MI NE OF",Jalisco,21.3721036,-101.6674776,1966-11-03,PRESERVED_SPECIMEN,KU
567,Sylvilagus floridanus subcinctus,"COMANJA DE CORONA, 4.5 MI NE OF",Jalisco,21.3721036,-101.6674776,1966-11-01,PRESERVED_SPECIMEN,KU
568,Sylvilagus floridanus subcinctus,"COMANJA DE CORONA, 4.5 MI NE OF",Jalisco,21.3721036,-101.6674776,1966-10-28,PRESERVED_SPECIMEN,KU
569,Sylvilagus floridanus subcinctus,"COMANJA DE CORONA, 4.5 MI NE OF",Jalisco,21.3721036,-101.6674776,1966-10-28,PRESERVED_SPECIMEN,KU
570,Sylvilagus floridanus subcinctus,"LAGOS DE MORENO, 14 MI SE OF",Jalisco,21.2123053,-101.7894509,1966-10-06,PRESERVED_SPECIMEN,KU
571,Sylvilagus floridanus subcinctus,"HUEJUQUILLA, 5 MI NE OF",Jalisco,22.6796819,-103.8462804,1966-11-15,PRESERVED_SPECIMEN,KU
572,Lepus callotis callotis,"MATANZAS, 10 MI NW OF",Jalisco,21.736459,-101.7580682,1966-05-17,PRESERVED_SPECIMEN,KU
573,Lepus callotis callotis,LA MESA MARIA DE LEON,Jalisco,22.3101931,-103.2913227,1966-07-19,PRESERVED_SPECIMEN,KU
574,Lepus callotis callotis,LA MESA MARIA DE LEON,Jalisco,22.3101931,-103.2913227,1966-07-19,PRESERVED_SPECIMEN,KU
575,Lepus callotis callotis,LA MESA MARIA DE LEON,Jalisco,22.3101931,-103.2913227,1966-06-24,PRESERVED_SPECIMEN,KU
576,Lepus callotis callotis,LA MESA MARIA DE LEON,Jalisco,22.3101931,-103.2913227,1966-06-24,PRESERVED_SPECIMEN,KU
577,Sylvilagus floridanus subcinctus,"MATANZAS, 10 MI NW OF",Jalisco,21.736459,-101.7580682,1966-05-17,PRESERVED_SPECIMEN,KU
578,Sylvilagus floridanus subcinctus,"MATANZAS, 10 MI NW OF",Jalisco,21.736459,-101.7580682,1966-05-12,PRESERVED_SPECIMEN,KU
579,Sylvilagus floridanus holzneri,"VILLA GUERRERO, 4 MI W OF",Jalisco,21.9835462,-103.659312,1966-06-18,PRESERVED_SPECIMEN,KU
580,Sylvilagus floridanus holzneri,"VILLA GUERRERO, 4 MI W OF",Jalisco,21.9835462,-103.659312,1966-06-17,PRESERVED_SPECIMEN,KU
581,Sylvilagus floridanus holzneri,LA MESA MARIA DE LEON,Jalisco,22.3101931,-103.2913227,1966-06-22,PRESERVED_SPECIMEN,KU
582,Sylvilagus floridanus holzneri,LA MESA MARIA DE LEON,Jalisco,22.3101931,-103.2913227,1966-06-21,PRESERVED_SPECIMEN,KU
583,Sylvilagus floridanus holzneri,MONTE ESCOBEDO,Zacatecas,22.3040824,-103.560499,1966-07-18,PRESERVED_SPECIMEN,KU
584,Sylvilagus cunicularius insolitus,"CHAMELA, 2 MI N OF",Jalisco,19.556365,-105.0733029,1966-06-30,PRESERVED_SPECIMEN,KU
585,Sylvilagus audubonii parvulus,"HUEJUCAR, 3 MI S OF",Jalisco,22.3143192,-103.2102108,1966-07-14,PRESERVED_SPECIMEN,KU
586,Sylvilagus audubonii parvulus,"HUEJUCAR, 3 MI S OF",Jalisco,22.3143192,-103.2102108,1966-07-14,PRESERVED_SPECIMEN,KU
587,Sylvilagus audubonii parvulus,"HUEJUCAR, 3 MI S OF",Jalisco,22.3143192,-103.2102108,1966-07-14,PRESERVED_SPECIMEN,KU
588,Lepus alleni palitans,"EL CARRIZO, 5 MI WNW OF",Sinaloa,25.993615,-109.0220952,1966-11-19,PRESERVED_SPECIMEN,KU
589,Lepus callotis mexicanus,"VILLA GUERRERO, 3 MI N OF",Jalisco,22.0271985,-103.5938286,1966-03-30,PRESERVED_SPECIMEN,KU
590,Sylvilagus,"VILLA GUERRERO, 4 MI W OF",Jalisco,21.9835462,-103.659312,1966-03-29,PRESERVED_SPECIMEN,KU
591,Sylvilagus floridanus subcinctus,"AMATITAN, 3 MI N OF",Jalisco,20.8773356,-103.7318671,1966-01-18,PRESERVED_SPECIMEN,KU
592,Sylvilagus floridanus subcinctus,"YAHUALICA, 10 MI NE OF",Jalisco,21.2850855,-102.7878616,1966-04-05,PRESERVED_SPECIMEN,KU
593,Sylvilagus audubonii parvulus,"ENCARNACION DE DIAZ, 8 MI W OF",Jalisco,21.5246813,-102.3535394,1965-10-07,PRESERVED_SPECIMEN,KU
594,Sylvilagus audubonii goldmani,"ALTATA, 7.5 MI ENE OF",Sinaloa,24.695671,-107.8356305,1965-11-03,PRESERVED_SPECIMEN,KU
595,Romerolagus diazi,"PARRES, 2 KM W OF",Ciudad de México,19.1367425,-99.193437,1965-06-26,PRESERVED_SPECIMEN,KU
596,Romerolagus diazi,"PARRES, 2 KM W OF",Ciudad de México,19.1367425,-99.193437,1965-06-26,PRESERVED_SPECIMEN,KU
597,Romerolagus diazi,"PARRES, 2 KM W OF",Ciudad de México,19.1367425,-99.193437,1965-06-26,PRESERVED_SPECIMEN,KU
598,Romerolagus diazi,"PARRES, 2 KM W OF",Ciudad de México,19.1367425,-99.193437,1965-06-26,PRESERVED_SPECIMEN,KU
599,Romerolagus diazi,"PARRES, 2 KM W OF",Ciudad de México,19.1367425,-99.193437,1965-06-26,PRESERVED_SPECIMEN,KU
600,Romerolagus diazi,"PARRES, 2 KM W OF",Ciudad de México,19.1367425,-99.193437,1965-06-26,PRESERVED_SPECIMEN,KU
601,Lepus californicus merriami,"TULA, 9 MI N OF",Tamaulipas,23.1346171,-99.708464,1965-05-11,PRESERVED_SPECIMEN,KU
602,Sylvilagus floridanus chapmani,"TULA, 9 MI N OF",Tamaulipas,23.1346171,-99.708464,1965-05-11,PRESERVED_SPECIMEN,KU
603,Sylvilagus floridanus chapmani,"TULA, 9 MI N OF",Tamaulipas,23.1346171,-99.708464,1965-05-11,PRESERVED_SPECIMEN,KU
604,Sylvilagus floridanus chapmani,"TULA, 9 MI N OF",Tamaulipas,23.1346171,-99.708464,1965-05-11,PRESERVED_SPECIMEN,KU
605,Lepus alleni palitans,PRESA HIDALGO,Sinaloa,26.5594049,-108.5574576,1965-02-05,PRESERVED_SPECIMEN,KU
606,Lepus alleni palitans,"EL CAJON, 1 MI S OF",Sinaloa,26.7961175,-108.1726499,1965-02-11,PRESERVED_SPECIMEN,KU
607,Lepus alleni palitans,"EL CAJON, 1 MI S OF",Sinaloa,26.7961175,-108.1726499,1965-02-11,PRESERVED_SPECIMEN,KU
608,Sylvilagus floridanus holzneri,EL CAJON,Sinaloa,26.810637,-108.17265,1965-02-14,PRESERVED_SPECIMEN,KU
609,Sylvilagus floridanus holzneri,"EL CAJON, 1 MI S OF",Sinaloa,26.7961175,-108.1726499,1965-02-12,PRESERVED_SPECIMEN,KU
610,Sylvilagus floridanus holzneri,"EL CAJON, 1 MI S OF",Sinaloa,26.7961175,-108.1726499,1965-02-11,PRESERVED_SPECIMEN,KU
611,Sylvilagus cunicularius insolitus,ISLA PALMITO DEL VERDE; 6 MI NNW OF TEACAPAN,Sinaloa,22.62178,-105.7710322,1965-04-07,PRESERVED_SPECIMEN,KU
612,Sylvilagus brasiliensis truei,YETLA,Oaxaca,17.7562617,-96.3139205,1964-06-26,PRESERVED_SPECIMEN,KU
613,Lepus alleni palitans,ISLA PALMITO DEL VERDE; 6 MI NNW OF TEACAPAN,Sinaloa,22.62178,-105.7710322,1964-10-28,PRESERVED_SPECIMEN,KU
614,Lepus alleni palitans,ISLA PALMITO DEL VERDE; 6 MI NNW OF TEACAPAN,Sinaloa,22.62178,-105.7710322,1964-10-28,PRESERVED_SPECIMEN,KU
615,Sylvilagus floridanus subcinctus,"BOLANOS, 6 MI ENE OF",Jalisco,21.8652933,-103.6992774,1964-10-15,PRESERVED_SPECIMEN,KU
616,Sylvilagus floridanus subcinctus,"BOLANOS, 6 MI ENE OF",Jalisco,21.8652933,-103.6992774,1964-10-15,PRESERVED_SPECIMEN,KU
617,Sylvilagus cunicularius insolitus,ISLA PALMITO DEL VERDE; 6 MI NNW OF TEACAPAN,Sinaloa,22.62178,-105.7710322,1964-10-29,PRESERVED_SPECIMEN,KU
618,Sylvilagus cunicularius insolitus,ISLA PALMITO DEL VERDE; 6 MI NNW OF TEACAPAN,Sinaloa,22.62178,-105.7710322,1964-10-29,PRESERVED_SPECIMEN,KU
619,Sylvilagus cunicularius insolitus,ISLA PALMITO DEL VERDE; 6 MI NNW OF TEACAPAN,Sinaloa,22.62178,-105.7710322,1964-10-29,PRESERVED_SPECIMEN,KU
620,Sylvilagus cunicularius insolitus,ISLA PALMITO DEL VERDE; 6 MI NNW OF TEACAPAN,Sinaloa,22.62178,-105.7710322,1964-10-28,PRESERVED_SPECIMEN,KU
621,Sylvilagus cunicularius insolitus,ISLA PALMITO DEL VERDE; 6 MI NNW OF TEACAPAN,Sinaloa,22.62178,-105.7710322,1964-10-28,PRESERVED_SPECIMEN,KU
622,Sylvilagus cunicularius insolitus,ISLA PALMITO DEL VERDE; 6 MI NNW OF TEACAPAN,Sinaloa,22.62178,-105.7710322,1964-10-28,PRESERVED_SPECIMEN,KU
623,Sylvilagus cunicularius insolitus,"LA CONCHA, 6 MI W OF",Sinaloa,22.5493021,-105.5351474,1964-10-25,PRESERVED_SPECIMEN,KU
624,Sylvilagus cunicularius insolitus,"LA CONCHA, 6 MI W OF",Sinaloa,22.5493021,-105.5351474,1964-10-25,PRESERVED_SPECIMEN,KU
625,Sylvilagus cunicularius insolitus,"LA CONCHA, 6 MI W OF",Sinaloa,22.5493021,-105.5351474,1964-10-25,PRESERVED_SPECIMEN,KU
626,Sylvilagus cunicularius insolitus,"LA CONCHA, 6 MI W OF",Sinaloa,22.5493021,-105.5351474,1964-10-25,PRESERVED_SPECIMEN,KU
627,Sylvilagus audubonii parvulus,"BOLANOS, 2 MI E OF",Jalisco,21.8318826,-103.7508385,1964-10-11,PRESERVED_SPECIMEN,KU
628,Sylvilagus floridanus orizabae,CERRO POTOSI,Nuevo León,24.8687091,-100.2318176,1964-09-04,PRESERVED_SPECIMEN,KU
629,Sylvilagus floridanus orizabae,"PABLILLO, 4.5 MI S OF",Nuevo León,24.5296287,-99.9940335,1964-08-26,PRESERVED_SPECIMEN,KU
630,Sylvilagus floridanus orizabae,"PABLILLO, 4.5 MI S OF",Nuevo León,24.5296287,-99.9940335,1964-08-25,PRESERVED_SPECIMEN,KU
631,Sylvilagus cunicularius insolitus,"TALPA DE ALLENDE, 15 MI S, 9 MI E OF",Jalisco,20.162853,-104.6914935,1964-05-20,PRESERVED_SPECIMEN,KU
632,Sylvilagus cunicularius cunicularius,OMILTEMI,Guerrero,17.5573724,-99.6856663,1964-07-19,PRESERVED_SPECIMEN,KU
633,Sylvilagus cunicularius cunicularius,OMILTEMI,Guerrero,17.5573724,-99.6856663,1964-07-17,PRESERVED_SPECIMEN,KU
634,Sylvilagus cunicularius cunicularius,OMILTEMI,Guerrero,17.5573724,-99.6856663,1964-07-16,PRESERVED_SPECIMEN,KU
635,Sylvilagus cunicularius cunicularius,OMILTEMI,Guerrero,17.5573724,-99.6856663,1964-07-15,PRESERVED_SPECIMEN,KU
636,Sylvilagus cunicularius cunicularius,OMILTEMI,Guerrero,17.5573724,-99.6856663,1964-07-14,PRESERVED_SPECIMEN,KU
637,Sylvilagus insonus,OMILTEMI,Guerrero,17.5573724,-99.6856663,1964-07-14,PRESERVED_SPECIMEN,KU
638,Sylvilagus floridanus orizabae,"ZARAGOZA, 1 MI S OF",Nuevo León,23.9557752,-99.7689757,1964-08-11,PRESERVED_SPECIMEN,KU
639,Sylvilagus floridanus orizabae,ZARAGOZA,Nuevo León,23.9703046,-99.7689777,1964-08-10,PRESERVED_SPECIMEN,KU
640,Sylvilagus floridanus orizabae,ZARAGOZA,Nuevo León,23.9703046,-99.7689777,1964-08-10,PRESERVED_SPECIMEN,KU
641,Sylvilagus floridanus orizabae,ZARAGOZA,Nuevo León,23.9703046,-99.7689777,1964-08-09,PRESERVED_SPECIMEN,KU
642,Sylvilagus floridanus orizabae,"ZARAGOZA, 6 MI ENE OF",Nuevo León,24.0036635,-99.6813238,1964-08-13,PRESERVED_SPECIMEN,KU
643,Sylvilagus floridanus orizabae,"ZARAGOZA, 3 MI WNW OF",Nuevo León,23.9869838,-99.8128069,1964-08-12,PRESERVED_SPECIMEN,KU
644,Sylvilagus floridanus orizabae,ARAMBERRI,Nuevo León,24.0942993,-99.8198575,1964-08-05,PRESERVED_SPECIMEN,KU
645,Sylvilagus floridanus orizabae,ARAMBERRI,Nuevo León,24.0942993,-99.8198575,1964-08-05,PRESERVED_SPECIMEN,KU
646,Lepus californicus merriami,CHINA,Nuevo León,25.7059061,-99.2398501,1964-08-23,PRESERVED_SPECIMEN,KU
647,Lepus californicus merriami,CHINA,Nuevo León,25.7059061,-99.2398501,1964-08-23,PRESERVED_SPECIMEN,KU
648,Lepus californicus merriami,CHINA,Nuevo León,25.7059061,-99.2398501,1964-08-23,PRESERVED_SPECIMEN,KU
649,Sylvilagus cunicularius insolitus,PALMITO,Sinaloa,22.6602353,-105.7715594,1964-03-15,PRESERVED_SPECIMEN,KU
650,Sylvilagus audubonii goldmani,"AGUA CALIENTE, 2 MI E OF",Sinaloa,24.2333575,-106.6155696,1964-02-21,PRESERVED_SPECIMEN,KU
651,Sylvilagus audubonii goldmani,"AGUA CALIENTE, 2 MI E OF",Sinaloa,24.2333575,-106.6155696,1964-02-23,PRESERVED_SPECIMEN,KU
652,Sylvilagus cunicularius insolitus,"TALPA DE ALLENDE, 15 MI S, 9 MI E OF",Jalisco,20.162853,-104.6914935,1964-05-18,PRESERVED_SPECIMEN,KU
653,Sylvilagus cunicularius insolitus,"TALPA DE ALLENDE, 15 MI S, 9 MI E OF",Jalisco,20.162853,-104.6914935,1964-05-18,PRESERVED_SPECIMEN,KU
654,Sylvilagus cunicularius insolitus,"TALPA DE ALLENDE, 15 MI S, 9 MI E OF",Jalisco,20.162853,-104.6914935,1964-05-17,PRESERVED_SPECIMEN,KU
655,Sylvilagus cunicularius insolitus,"PALMITO, 2 MI E OF",Sinaloa,22.6602384,-105.7402417,1964-03-22,PRESERVED_SPECIMEN,KU
656,Sylvilagus cunicularius insolitus,PALMITO,Sinaloa,22.6602353,-105.7715594,1964-03-20,PRESERVED_SPECIMEN,KU
657,Sylvilagus cunicularius insolitus,PALMITO,Sinaloa,22.6602353,-105.7715594,1964-03-20,PRESERVED_SPECIMEN,KU
658,Sylvilagus cunicularius insolitus,PALMITO,Sinaloa,22.6602353,-105.7715594,1964-03-20,PRESERVED_SPECIMEN,KU
659,Sylvilagus cunicularius insolitus,PALMITO,Sinaloa,22.6602353,-105.7715594,1964-03-18,PRESERVED_SPECIMEN,KU
660,Sylvilagus cunicularius insolitus,PALMITO,Sinaloa,22.6602353,-105.7715594,1964-03-16,PRESERVED_SPECIMEN,KU
661,Sylvilagus cunicularius insolitus,MATATAN,Sinaloa,23.0332122,-105.7274931,1964-05-08,PRESERVED_SPECIMEN,KU
662,Sylvilagus floridanus holzneri,"PALMITO, 5 KM SW OF",Sinaloa,22.6283095,-105.805963,1963-07-18,PRESERVED_SPECIMEN,KU
663,Sylvilagus floridanus holzneri,"PALMITO, 5 KM SW OF",Sinaloa,22.6283095,-105.805963,1963-07-18,PRESERVED_SPECIMEN,KU
664,Sylvilagus floridanus holzneri,"PALMITO, 5 KM SW OF",Sinaloa,22.6283095,-105.805963,1963-07-18,PRESERVED_SPECIMEN,KU
665,Lepus alleni palitans,"BADIRAGUATO, 13 MI ESE OF",Sinaloa,25.2933306,-107.3582825,1964-02-02,PRESERVED_SPECIMEN,KU
666,Lepus alleni palitans,"BADIRAGUATO, 13 MI ESE OF",Sinaloa,25.2933306,-107.3582825,1964-02-02,PRESERVED_SPECIMEN,KU
667,Lepus alleni palitans,"EL CARRIZO, 8 MI WNW OF",Sinaloa,26.0102941,-109.0666363,1964-01-05,PRESERVED_SPECIMEN,KU
668,Sylvilagus floridanus holzneri,"BADIRAGUATO, 13 MI ESE OF",Sinaloa,25.2933306,-107.3582825,1964-02-03,PRESERVED_SPECIMEN,KU
669,Sylvilagus floridanus holzneri,"BADIRAGUATO, 1.5 MI N OF",Sinaloa,25.3390279,-107.5503272,1964-01-22,PRESERVED_SPECIMEN,KU
670,Sylvilagus floridanus holzneri,"BADIRAGUATO, 1.5 MI N OF",Sinaloa,25.3390279,-107.5503272,1964-01-21,PRESERVED_SPECIMEN,KU
671,Sylvilagus floridanus holzneri,"BADIRAGUATO, 1.5 MI N OF",Sinaloa,25.3390279,-107.5503272,1964-01-20,PRESERVED_SPECIMEN,KU
672,Sylvilagus floridanus holzneri,"BADIRAGUATO, 20 KM N, 5 KM E OF",Sinaloa,25.5464758,-107.5051083,1964-01-26,PRESERVED_SPECIMEN,KU
673,Sylvilagus floridanus holzneri,"BADIRAGUATO, 20 KM N, 5 KM E OF",Sinaloa,25.5464758,-107.5051083,1964-01-26,PRESERVED_SPECIMEN,KU
674,Sylvilagus audubonii goldmani,"EL CARRIZO, 8 MI WNW OF",Sinaloa,26.0102941,-109.0666363,1964-01-05,PRESERVED_SPECIMEN,KU
675,Sylvilagus floridanus holzneri,PANUCO,Sinaloa,23.4248547,-105.902779,1963-10-16,PRESERVED_SPECIMEN,KU
676,Sylvilagus floridanus holzneri,"VACA, 13 KM NNE OF",Sinaloa,26.9059022,-108.3996459,1963-12-02,PRESERVED_SPECIMEN,KU
677,Lepus alleni palitans,"VACA, 13 KM NNE OF",Sinaloa,26.9059022,-108.3996459,1963-11-29,PRESERVED_SPECIMEN,KU
678,Lepus californicus eremicus,"KINO, 4 KM W OF",Sonora,28.849321,-111.982593,1963-06-26,PRESERVED_SPECIMEN,KU
679,Lepus californicus eremicus,KINO NUEVO; 6 KM W OF KINO,Sonora,28.8586925,-112.0136878,1963-06-23,PRESERVED_SPECIMEN,KU
680,Lepus alleni tiburonensis,"ISLA DE TIBURON, S END OF; GULFO DE CALIFORNIA",Sonora,28.7772264,-112.3850528,1963-06-28,PRESERVED_SPECIMEN,KU
681,Lepus alleni tiburonensis,"ISLA DE TIBURON, S END OF; GULFO DE CALIFORNIA",Sonora,28.7772264,-112.3850528,1963-06-28,PRESERVED_SPECIMEN,KU
682,Lepus alleni tiburonensis,"ISLA DE TIBURON, S END OF; GULFO DE CALIFORNIA",Sonora,28.7772264,-112.3850528,1963-06-25,PRESERVED_SPECIMEN,KU
683,Lepus alleni tiburonensis,"ISLA DE TIBURON, S END OF; GULFO DE CALIFORNIA",Sonora,28.7772264,-112.3850528,1963-06-25,PRESERVED_SPECIMEN,KU
684,Lepus alleni tiburonensis,ISLA DE TIBURON; GULFO DE CALIFORNIA,Sonora,28.9955646,-112.3864224,1963-06-26,PRESERVED_SPECIMEN,KU
685,Lepus alleni tiburonensis,ISLA DE TIBURON; GULFO DE CALIFORNIA,Sonora,28.9955646,-112.3864224,1963-06-21,PRESERVED_SPECIMEN,KU
686,Sylvilagus floridanus holzneri,"PALMITO, 5 KM SW OF",Sinaloa,22.6283095,-105.805963,1963-07-18,PRESERVED_SPECIMEN,KU
687,Sylvilagus floridanus holzneri,"PALMITO, 5 KM SW OF",Sinaloa,22.6283095,-105.805963,1963-07-18,PRESERVED_SPECIMEN,KU
688,Sylvilagus cunicularius insolitus,"SAN BLAS, 12.9 MI (BY ROAD) E OF",Nayarit,21.6271595,-105.1440402,1963-07-31,PRESERVED_SPECIMEN,KU
689,Sylvilagus floridanus holzneri,"MATATAN, 22 KM E OF; PLOMOSAS",Sinaloa,23.0721016,-105.4680472,1962-08-29,PRESERVED_SPECIMEN,KU
690,Sylvilagus floridanus yucatanicus,"CHAMPOTON, 5 KM S, 4 KM E OF",Campeche,19.3098136,-90.6799017,1962-07-09,PRESERVED_SPECIMEN,KU
691,Sylvilagus floridanus yucatanicus,CHAMPOTON,Campeche,19.3553664,-90.7204588,1962-07-10,PRESERVED_SPECIMEN,KU
692,Sylvilagus floridanus yucatanicus,CHAMPOTON,Campeche,19.3553664,-90.7204588,1962-07-10,PRESERVED_SPECIMEN,KU
693,Sylvilagus floridanus yucatanicus,CHAMPOTON,Campeche,19.3553664,-90.7204588,1962-07-10,PRESERVED_SPECIMEN,KU
694,Sylvilagus floridanus yucatanicus,CHAMPOTON,Campeche,19.3553664,-90.7204588,1962-07-10,PRESERVED_SPECIMEN,KU
695,Sylvilagus floridanus yucatanicus,PISTE,Yucatán,20.6986435,-88.5884659,1962-07-27,PRESERVED_SPECIMEN,KU
696,Sylvilagus floridanus yucatanicus,PISTE,Yucatán,20.6986435,-88.5884659,1962-07-27,PRESERVED_SPECIMEN,KU
697,Lepus alleni palitans,SAN IGNACIO,Sinaloa,23.9443204,-106.4303749,1962-07-13,PRESERVED_SPECIMEN,KU
698,Sylvilagus floridanus holzneri,"COSALA, 12 KM E OF; SANTA ANA",Durango,24.416573,-106.5756256,1962-06-12,PRESERVED_SPECIMEN,KU
699,Sylvilagus floridanus holzneri,"COSALA, 12 KM E OF; SANTA ANA",Durango,24.416573,-106.5756256,1962-06-12,PRESERVED_SPECIMEN,KU
700,Sylvilagus floridanus holzneri,"COSALA, 12 KM E OF; SANTA ANA",Durango,24.416573,-106.5756256,1962-06-11,PRESERVED_SPECIMEN,KU
701,Sylvilagus cunicularius insolitus,MATATAN,Sinaloa,23.0332122,-105.7274931,1962-06-28,PRESERVED_SPECIMEN,KU
702,Sylvilagus cunicularius insolitus,SAN IGNACIO,Sinaloa,23.9443204,-106.4303749,1962-07-20,PRESERVED_SPECIMEN,KU
703,Sylvilagus cunicularius insolitus,SAN IGNACIO,Sinaloa,23.9443204,-106.4303749,1962-07-19,PRESERVED_SPECIMEN,KU
704,Sylvilagus floridanus holzneri,SAN IGNACIO,Sinaloa,23.9443204,-106.4303749,1962-07-19,PRESERVED_SPECIMEN,KU
705,Sylvilagus audubonii goldmani,"NAVOLATO, 4 KM SW OF",Sinaloa,24.7578029,-107.7357315,1962-05-10,PRESERVED_SPECIMEN,KU
706,Sylvilagus audubonii goldmani,"NAVOLATO, 4 KM SW OF",Sinaloa,24.7578029,-107.7357315,1962-05-09,PRESERVED_SPECIMEN,KU
707,Sylvilagus floridanus holzneri,"SINALOA, 10 KM S, 38 KM E OF",Sinaloa,25.7324408,-107.8443662,1962-04-24,PRESERVED_SPECIMEN,KU
708,Sylvilagus audubonii goldmani,"ALTAMURA ISLAND, 6 KM E OF; TACHETIZTE ISLAND",Sinaloa,24.9541118,-107.970257,1962-04-04,PRESERVED_SPECIMEN,KU
709,Sylvilagus audubonii goldmani,"ALTAMURA ISLAND, 6 KM E OF; TACHETIZTE ISLAND",Sinaloa,24.9541118,-107.970257,1962-04-03,PRESERVED_SPECIMEN,KU
710,Sylvilagus audubonii goldmani,"ALTAMURA ISLAND, 6 KM E OF; TACHETIZTE ISLAND",Sinaloa,24.9541118,-107.970257,1962-04-03,PRESERVED_SPECIMEN,KU
711,Sylvilagus audubonii goldmani,"ALTAMURA ISLAND, 6 KM E OF; TACHETIZTE ISLAND",Sinaloa,24.9541118,-107.970257,1962-04-03,PRESERVED_SPECIMEN,KU
712,Sylvilagus audubonii goldmani,"ALTAMURA ISLAND, 6 KM E OF; TACHETIZTE ISLAND",Sinaloa,24.9541118,-107.970257,1962-04-03,PRESERVED_SPECIMEN,KU
713,Sylvilagus audubonii goldmani,"ALTAMURA ISLAND, 6 KM E OF; TACHETIZTE ISLAND",Sinaloa,24.9541118,-107.970257,1962-04-03,PRESERVED_SPECIMEN,KU
714,Sylvilagus audubonii goldmani,"ALTAMURA ISLAND, 6 KM E OF; TACHETIZTE ISLAND",Sinaloa,24.9541118,-107.970257,1962-04-03,PRESERVED_SPECIMEN,KU
715,Sylvilagus audubonii goldmani,"TOPOLOBAMPO, 16 KM SE OF",Sinaloa,25.4979962,-108.9477617,1962-03-08,PRESERVED_SPECIMEN,KU
716,Sylvilagus floridanus holzneri,"SINALOA, 10 KM S, 38 KM E OF",Sinaloa,25.7324408,-107.8443662,1962-04-18,PRESERVED_SPECIMEN,KU
717,Sylvilagus floridanus holzneri,"SINALOA, 15 KM N, 65 KM E OF",Sinaloa,25.958103,-107.5750912,1962-04-13,PRESERVED_SPECIMEN,KU
718,Sylvilagus floridanus holzneri,"CHOIX, 16 KM NNE OF",Sinaloa,26.8324567,-108.2580631,1962-01-08,PRESERVED_SPECIMEN,KU
719,Sylvilagus floridanus holzneri,"CHOIX, 16 KM NNE OF",Sinaloa,26.8324567,-108.2580631,1962-01-08,PRESERVED_SPECIMEN,KU
720,Sylvilagus audubonii parvulus,"NUEVO LAREDO, 4 MI SW OF",Tamaulipas,27.4452787,-99.5512563,1961-11-14,PRESERVED_SPECIMEN,KU
721,Lepus californicus curti,"WASHINGTON BEACH, 33 MI S OF",Tamaulipas,25.4305264,-97.3260762,1961-07-07,PRESERVED_SPECIMEN,KU
722,Lepus californicus curti,"WASHINGTON BEACH, 33 MI S OF",Tamaulipas,25.4305264,-97.3260762,1961-07-06,PRESERVED_SPECIMEN,KU
723,Lepus californicus merriami,"SAN CARLOS, 12 MI NW OF",Tamaulipas,24.7062197,-99.0726219,1961-08-24,PRESERVED_SPECIMEN,KU
724,Lepus californicus merriami,"SAN CARLOS, 12 MI NW OF",Tamaulipas,24.7062197,-99.0726219,1961-08-23,PRESERVED_SPECIMEN,KU
725,Sylvilagus floridanus connectens,"TULA, 9 MI SW OF",Tamaulipas,22.9101814,-99.8054104,1961-10-13,PRESERVED_SPECIMEN,KU
726,Sylvilagus floridanus chapmani,"SAN CARLOS, 12 MI NW OF",Tamaulipas,24.7062197,-99.0726219,1961-08-23,PRESERVED_SPECIMEN,KU
727,Sylvilagus floridanus chapmani,"SAN CARLOS, 12 MI NW OF",Tamaulipas,24.7062197,-99.0726219,1961-08-23,PRESERVED_SPECIMEN,KU
728,Sylvilagus floridanus chapmani,"SAN CARLOS, 12 MI NW OF",Tamaulipas,24.7062197,-99.0726219,1961-08-23,PRESERVED_SPECIMEN,KU
729,Sylvilagus floridanus chapmani,SAN FERNANDO,Tamaulipas,24.847884,-98.1584333,1961-08-29,PRESERVED_SPECIMEN,KU
730,Sylvilagus floridanus chapmani,SAN FERNANDO,Tamaulipas,24.847884,-98.1584333,1961-08-29,PRESERVED_SPECIMEN,KU
731,Sylvilagus floridanus chapmani,SAN FERNANDO,Tamaulipas,24.847884,-98.1584333,1961-08-29,PRESERVED_SPECIMEN,KU
732,Sylvilagus brasiliensis truei,"TIHUATLAN, 12.5 MI N OF",Veracruz,20.8980553,-97.5350707,1961-09-21,PRESERVED_SPECIMEN,KU
733,Sylvilagus cunicularius insolitus,"RUIZ, 10 MI E OF; PLATANARES",Nayarit,21.919374,-104.9841407,1961-02-12,PRESERVED_SPECIMEN,KU
734,Sylvilagus cunicularius insolitus,"RUIZ, 10 MI E OF; PLATANARES",Nayarit,21.919374,-104.9841407,1961-02-12,PRESERVED_SPECIMEN,KU
735,Sylvilagus cunicularius insolitus,"RUIZ, 10 MI E OF; PLATANARES",Nayarit,21.919374,-104.9841407,1961-02-12,PRESERVED_SPECIMEN,KU
736,Lepus californicus texianus,"JIMENEZ, 1.5 MI W OF",Chihuahua,27.1265,-104.9407,1961-02-21,PRESERVED_SPECIMEN,KU
737,Lepus californicus texianus,"CAMARGO, 25 MI NNW OF",Chihuahua,27.9989884,-105.3102816,1961-02-21,PRESERVED_SPECIMEN,KU
738,Lepus californicus texianus,"CAMARGO, 25 MI NNW OF",Chihuahua,27.9989884,-105.3102816,1961-02-21,PRESERVED_SPECIMEN,KU
739,Sylvilagus floridanus connectens,"TUXPAM, 4 KM N OF",Veracruz,20.9958293,-97.4031239,1960-03-19,PRESERVED_SPECIMEN,KU
740,Sylvilagus brasiliensis truei,"TUXPAM, 35 KM NW OF",Veracruz,21.1847091,-97.6528525,1960-04-10,PRESERVED_SPECIMEN,KU
741,Sylvilagus floridanus connectens,"TUXPAM, 50 KM NW OF",Veracruz,21.2813704,-97.7600774,1960-04-09,PRESERVED_SPECIMEN,KU
742,Sylvilagus floridanus connectens,"TUXPAM, 50 KM NW OF",Veracruz,21.2813704,-97.7600774,1960-04-09,PRESERVED_SPECIMEN,KU
743,Sylvilagus floridanus connectens,"TUXPAM, 60 KM WNW OF; TLACOLULA",Veracruz,21.0918483,-97.9600965,1960-04-21,PRESERVED_SPECIMEN,KU
744,Sylvilagus floridanus connectens,"TUXPAM, 60 KM WNW OF; TLACOLULA",Veracruz,21.0918483,-97.9600965,1960-04-21,PRESERVED_SPECIMEN,KU
745,Sylvilagus floridanus connectens,"TUXPAM, 70 KM NW OF; IXCATEPEC",Veracruz,21.2376786,-98.0079202,1960-04-20,PRESERVED_SPECIMEN,KU
746,Sylvilagus floridanus connectens,CABO ROJO; HACIENDA TAMIAHUA,Veracruz,21.5608043,-97.326179,1960-04-06,PRESERVED_SPECIMEN,KU
747,Sylvilagus floridanus connectens,CABO ROJO; HACIENDA TAMIAHUA,Veracruz,21.5608043,-97.326179,1960-04-02,PRESERVED_SPECIMEN,KU
748,Sylvilagus floridanus holzneri,"CEROCAHUI, 6 MI N OF",Chihuahua,27.3856146,-108.0559106,1960-05-13,PRESERVED_SPECIMEN,KU
749,Sylvilagus floridanus holzneri,"SAN FRANCISCO DE BORJA, 4 MI NW OF",Chihuahua,27.9433291,-106.7259203,1960-05-01,PRESERVED_SPECIMEN,KU
750,Sylvilagus audubonii minor,"CONSOLACION, 16 MI SW OF",Chihuahua,29.0604618,-104.3583915,1960-04-25,PRESERVED_SPECIMEN,KU
751,Sylvilagus audubonii minor,"CONSOLACION, 16 MI SW OF",Chihuahua,29.0604618,-104.3583915,1960-04-25,PRESERVED_SPECIMEN,KU
752,Sylvilagus audubonii minor,CONSOLACION,Chihuahua,29.2247379,-104.1711278,1960-04-23,PRESERVED_SPECIMEN,KU
753,Sylvilagus audubonii minor,"CONSOLACION, 3 MI N OF",Chihuahua,29.2682954,-104.1711281,1960-04-23,PRESERVED_SPECIMEN,KU
754,Lepus callotis gaillardi,"LA JUNTA, 4 MI ESE OF",Chihuahua,28.45354,-107.26717,1960-05-03,PRESERVED_SPECIMEN,KU
755,Lepus callotis gaillardi,"DUBLAN, 35 MI NW OF",Chihuahua,30.80192,-108.32624,1960-05-18,PRESERVED_SPECIMEN,KU
756,Lepus callotis gaillardi,"DUBLAN, 35 MI NW OF",Chihuahua,30.80192,-108.32624,1960-05-18,PRESERVED_SPECIMEN,KU
757,Lepus callotis gaillardi,"DUBLAN, 35 MI NW OF",Chihuahua,30.80192,-108.32624,1960-05-18,PRESERVED_SPECIMEN,KU
758,Lepus callotis gaillardi,"DUBLAN, 35 MI NW OF",Chihuahua,30.80192,-108.32624,1960-05-18,PRESERVED_SPECIMEN,KU
759,Lepus callotis gaillardi,"DUBLAN, 35 MI NW OF",Chihuahua,30.80192,-108.32624,1960-05-18,PRESERVED_SPECIMEN,KU
760,Lepus callotis gaillardi,"DUBLAN, 35 MI NW OF",Chihuahua,30.80192,-108.32624,1960-05-18,PRESERVED_SPECIMEN,KU
761,Lepus callotis gaillardi,"DUBLAN, 35 MI NW OF",Chihuahua,30.80192,-108.32624,1960-05-18,PRESERVED_SPECIMEN,KU
762,Lepus callotis gaillardi,"DUBLAN, 35 MI NW OF",Chihuahua,30.80192,-108.32624,1960-05-18,PRESERVED_SPECIMEN,KU
763,Lepus callotis gaillardi,"DUBLAN, 35 MI NW OF",Chihuahua,30.80192,-108.32624,1960-05-17,PRESERVED_SPECIMEN,KU
764,Lepus californicus texianus,"ESCOBILLAS, 8 MI NNW OF",Chihuahua,28.9199785,-104.1553747,1960-04-26,PRESERVED_SPECIMEN,KU
765,Lepus californicus texianus,CONSOLACION,Chihuahua,29.2247379,-104.1711278,1960-04-25,PRESERVED_SPECIMEN,KU
766,Lepus californicus texianus,CONSOLACION,Chihuahua,29.2247379,-104.1711278,1960-04-23,PRESERVED_SPECIMEN,KU
767,Lepus californicus texianus,"CONSOLACION, 3 MI N OF",Chihuahua,29.2682954,-104.1711281,1960-04-23,PRESERVED_SPECIMEN,KU
768,Lepus californicus texianus,"CHAPO, 4.5 MI S OF",Chihuahua,28.632481,-106.080239,1960-04-22,PRESERVED_SPECIMEN,KU
769,Lepus californicus texianus,"LAS VARAS, 4 MI SE OF",Chihuahua,28.11025,-105.29588,1960-05-16,PRESERVED_SPECIMEN,KU
770,Lepus californicus eremicus,"DUBLAN, 6 MI NW OF",Chihuahua,30.50422,-107.98268,1960-05-17,PRESERVED_SPECIMEN,KU
771,Lepus californicus eremicus,"DUBLAN, 6 MI NW OF",Chihuahua,30.50422,-107.98268,1960-05-17,PRESERVED_SPECIMEN,KU
772,Lepus callotis gaillardi,"DUBLAN, 18 MI NW OF",Chihuahua,30.62741,-108.12484,1960-05-17,PRESERVED_SPECIMEN,KU
773,Lepus californicus eremicus,"DUBLAN, 35 MI NW OF",Chihuahua,30.80192,-108.32624,1960-05-17,PRESERVED_SPECIMEN,KU
774,Sylvilagus floridanus holzneri,"TEMORIS, 3 MI NE OF",Chihuahua,27.3371467,-108.209174,1959-07-19,PRESERVED_SPECIMEN,KU
775,Sylvilagus floridanus holzneri,"CREEL, 11 MI S, 8 MI W OF",Chihuahua,27.5925,-107.7652,1959-07-16,PRESERVED_SPECIMEN,KU
776,Sylvilagus floridanus holzneri,"MINACA, 2 MI W OF",Chihuahua,28.4535391,-107.4566658,1959-07-02,PRESERVED_SPECIMEN,KU
777,Sylvilagus audubonii goldmani,"EL FUERTE, 7 MI NE OF",Sinaloa,26.4538642,-108.5213161,1959-07-23,PRESERVED_SPECIMEN,KU
778,Sylvilagus audubonii goldmani,"EL FUERTE, 7 MI NE OF",Sinaloa,26.4538642,-108.5213161,1959-07-23,PRESERVED_SPECIMEN,KU
779,Sylvilagus audubonii minor,"MINACA, 2 MI W OF",Chihuahua,28.4535391,-107.4566658,1959-07-01,PRESERVED_SPECIMEN,KU
780,Sylvilagus audubonii minor,"TRINCHERAS, 4 MI S OF",Chihuahua,30.916703,-107.649947,1959-06-23,PRESERVED_SPECIMEN,KU
781,Lepus callotis gaillardi,"MINACA, 2 MI W OF",Chihuahua,28.4535391,-107.4566658,1959-07-06,PRESERVED_SPECIMEN,KU
782,Lepus callotis gaillardi,"MINACA, 2 MI W OF",Chihuahua,28.4535391,-107.4566658,1959-07-05,PRESERVED_SPECIMEN,KU
783,Lepus callotis gaillardi,"MINACA, 2 MI W OF",Chihuahua,28.4535391,-107.4566658,1959-07-02,PRESERVED_SPECIMEN,KU
784,Lepus callotis gaillardi,"MINACA, 2 MI W OF",Chihuahua,28.4535391,-107.4566658,1959-07-02,PRESERVED_SPECIMEN,KU
785,Lepus callotis gaillardi,"MINACA, 2 MI W OF",Chihuahua,28.4535391,-107.4566658,1959-07-04,PRESERVED_SPECIMEN,KU
786,Lepus callotis gaillardi,"MINACA, 2 MI W OF",Chihuahua,28.4535391,-107.4566658,1959-07-04,PRESERVED_SPECIMEN,KU
787,Lepus callotis gaillardi,"MINACA, 2 MI W OF",Chihuahua,28.4535391,-107.4566658,1959-07-04,PRESERVED_SPECIMEN,KU
788,Lepus callotis gaillardi,"MINACA, 2 MI W OF",Chihuahua,28.4535391,-107.4566658,1959-07-02,PRESERVED_SPECIMEN,KU
789,Lepus callotis gaillardi,"MINACA, 2 MI W OF",Chihuahua,28.4535391,-107.4566658,1959-07-01,PRESERVED_SPECIMEN,KU
790,Lepus californicus texianus,"BOCOYNA, 4 MI S OF",Chihuahua,27.783,-107.58895,1959-07-16,PRESERVED_SPECIMEN,KU
791,Lepus californicus texianus,"MINACA, 2 MI W OF",Chihuahua,28.4535391,-107.4566658,1959-07-02,PRESERVED_SPECIMEN,KU
792,Lepus californicus texianus,"MINACA, 2 MI W OF",Chihuahua,28.4535391,-107.4566658,1959-07-04,PRESERVED_SPECIMEN,KU
793,Lepus californicus texianus,"MINACA, 2 MI W OF",Chihuahua,28.4535391,-107.4566658,1959-07-01,PRESERVED_SPECIMEN,KU
794,Lepus californicus texianus,"MINACA, 2 MI W OF",Chihuahua,28.4535391,-107.4566658,1959-07-01,PRESERVED_SPECIMEN,KU
795,Lepus californicus texianus,"LAGUNA DE BUSTILLOS, NE SIDE OF",Chihuahua,28.6002502,-106.7401025,1959-07-14,PRESERVED_SPECIMEN,KU
796,Lepus californicus texianus,"LAGUNA DE BUSTILLOS, NE SIDE OF",Chihuahua,28.6002502,-106.7401025,1959-07-08,PRESERVED_SPECIMEN,KU
797,Lepus californicus texianus,"TRINCHERAS, 4 MI S OF",Chihuahua,30.916703,-107.649947,1959-06-23,PRESERVED_SPECIMEN,KU
798,Lepus californicus texianus,"LA MULA, 16 MI WSW OF",Chihuahua,28.92776,-107.66085,1959-06-22,PRESERVED_SPECIMEN,KU
799,Lepus californicus texianus,"OJINAGA, 1 MI NW OF",Chihuahua,29.5749128,-104.4269551,1959-06-20,PRESERVED_SPECIMEN,KU
800,Lepus californicus texianus,"OJINAGA, 1 MI NW OF",Chihuahua,29.5749128,-104.4269551,1959-06-20,PRESERVED_SPECIMEN,KU
801,Lepus californicus texianus,"OJINAGA, 1 MI NW OF",Chihuahua,29.5749128,-104.4269551,1959-06-20,PRESERVED_SPECIMEN,KU
802,Lepus californicus texianus,"OJINAGA, 1 MI NW OF",Chihuahua,29.5749128,-104.4269551,1959-06-19,PRESERVED_SPECIMEN,KU
803,Lepus californicus texianus,"OJINAGA, 1 MI NW OF",Chihuahua,29.5749128,-104.4269551,1959-06-19,PRESERVED_SPECIMEN,KU
804,Lepus californicus texianus,"OJINAGA, 1 MI NW OF",Chihuahua,29.5749128,-104.4269551,1959-06-19,PRESERVED_SPECIMEN,KU
805,Lepus californicus texianus,"OJINAGA, 3 MI WNW OF",Chihuahua,29.5813294,-104.4569979,1959-06-19,PRESERVED_SPECIMEN,KU
806,Lepus californicus texianus,"OJINAGA, 3 MI WNW OF",Chihuahua,29.5813294,-104.4569979,1959-06-19,PRESERVED_SPECIMEN,KU
807,Lepus alleni palitans,"EL FUERTE, 6 MI SSW OF",Sinaloa,26.3459547,-108.6667169,1959-07-24,PRESERVED_SPECIMEN,KU
808,Sylvilagus floridanus holzneri,"SAN JOSE BAVICORA, 2 MI SW OF",Chihuahua,29.2304311,-107.7723241,1958-07-03,PRESERVED_SPECIMEN,KU
809,Sylvilagus floridanus holzneri,"SAN JOSE BAVICORA, 2 MI SW OF",Chihuahua,29.2304311,-107.7723241,1958-07-03,PRESERVED_SPECIMEN,KU
810,Sylvilagus floridanus holzneri,"SAN JOSE BAVICORA, 2 MI SW OF",Chihuahua,29.2304311,-107.7723241,1958-07-02,PRESERVED_SPECIMEN,KU
811,Sylvilagus audubonii minor,"HUESO, 6 MI S, 1 MI W OF",Chihuahua,30.559308,-105.571026,1958-07-25,PRESERVED_SPECIMEN,KU
812,Sylvilagus audubonii minor,"BANDERAS, 8 MI NW OF",Chihuahua,31.09874,-105.67861,1958-07-27,PRESERVED_SPECIMEN,KU
813,Sylvilagus audubonii minor,"BANDERAS, 10 MI NW OF",Chihuahua,31.11927,-105.70244,1958-07-27,PRESERVED_SPECIMEN,KU
814,Sylvilagus audubonii minor,"VADO DE FUSILES, 5 MI SW OF",Chihuahua,31.51535,-107.6766,1958-06-25,PRESERVED_SPECIMEN,KU
815,Sylvilagus audubonii minor,"COLUMBUS, 5 MI S OF",Chihuahua,28.62059,-106.10315,1958-06-21,PRESERVED_SPECIMEN,KU
816,Lepus californicus texianus,"SAN JOSE BAVICORA, 2 MI SW OF",Chihuahua,29.2304311,-107.7723241,1958-07-03,PRESERVED_SPECIMEN,KU
817,Lepus californicus texianus,"VADO DE FUSILES, 9 MI SW OF",Chihuahua,31.47429,-107.72455,1958-06-25,PRESERVED_SPECIMEN,KU
818,Lepus californicus texianus,"VADO DE FUSILES, 5 MI SW OF",Chihuahua,31.51535,-107.6766,1958-06-25,PRESERVED_SPECIMEN,KU
819,Lepus californicus texianus,VADO DE FUSILES,Chihuahua,31.566667,-107.616667,1958-06-21,PRESERVED_SPECIMEN,KU
820,Lepus alleni palitans,TEMORIS,Chihuahua,27.2755287,-108.2781352,1958-07-22,PRESERVED_SPECIMEN,KU
821,Sylvilagus audubonii minor,"CUATRO CIENEGAS, 16 KM S OF",Coahuila,26.8414209,-102.0668741,1958-09-09,PRESERVED_SPECIMEN,KU
822,Sylvilagus floridanus holzneri,"LOS LAMENTOS, 3.5 MI ESE OF",Chihuahua,30.55377,-105.76565,1956-07-09,PRESERVED_SPECIMEN,KU
823,Lepus californicus texianus,"LOS LAMENTOS, 3.5 MI ESE OF",Chihuahua,30.55377,-105.76565,1956-07-09,PRESERVED_SPECIMEN,KU
824,Lepus callotis gaillardi,"EL GALLEGO, 30 MI SW OF; ARROYO DEL NIDO",Chihuahua,29.5153824,-106.695684,1957-06-18,PRESERVED_SPECIMEN,KU
825,Sylvilagus audubonii goldmani,"EL DORADO, 6 MI N, 1.5 MI E OF",Sinaloa,24.4112859,-107.3462706,1957-11-17,PRESERVED_SPECIMEN,KU
826,Sylvilagus audubonii goldmani,"EL DORADO, 6 MI N, 1.5 MI E OF",Sinaloa,24.4112859,-107.3462706,1957-11-17,PRESERVED_SPECIMEN,KU
827,Sylvilagus audubonii goldmani,"EL DORADO, 6 MI N, 1.5 MI E OF",Sinaloa,24.4112859,-107.3462706,1957-11-17,PRESERVED_SPECIMEN,KU
828,Sylvilagus audubonii goldmani,"EL DORADO, 6 MI N OF",Sinaloa,24.4100169,-107.3686991,1957-11-13,PRESERVED_SPECIMEN,KU
829,Lepus alleni palitans,"EL DORADO, 9 MI SE OF",Sinaloa,24.25009,-107.2633278,1957-11-16,PRESERVED_SPECIMEN,KU
830,Lepus alleni palitans,"EL DORADO, 9 MI SE OF",Sinaloa,24.25009,-107.2633278,1957-11-16,PRESERVED_SPECIMEN,KU
831,Lepus alleni palitans,"EL DORADO, 9 MI SE OF",Sinaloa,24.25009,-107.2633278,1957-11-16,PRESERVED_SPECIMEN,KU
832,Lepus alleni palitans,"EL DORADO, 9 MI SE OF",Sinaloa,24.25009,-107.2633278,1957-11-16,PRESERVED_SPECIMEN,KU
833,Lepus alleni palitans,"EL DORADO, 9 MI SE OF",Sinaloa,24.25009,-107.2633278,1957-11-16,PRESERVED_SPECIMEN,KU
834,Lepus alleni palitans,"EL DORADO, 9 MI SE OF",Sinaloa,24.25009,-107.2633278,1957-11-16,PRESERVED_SPECIMEN,KU
835,Lepus alleni palitans,"EL DORADO, 9 MI SE OF",Sinaloa,24.25009,-107.2633278,1957-11-16,PRESERVED_SPECIMEN,KU
836,Lepus alleni palitans,"EL DORADO, 6 MI N OF",Sinaloa,24.4100169,-107.3686991,1957-11-13,PRESERVED_SPECIMEN,KU
837,Lepus alleni palitans,"EL DORADO, 6 MI N OF",Sinaloa,24.4100169,-107.3686991,1957-11-13,PRESERVED_SPECIMEN,KU
838,Sylvilagus audubonii minor,"PARRAL, 22 MI N, 12 MI E OF",Chihuahua,27.297632,-107.939822,1957-08-27,PRESERVED_SPECIMEN,KU
839,Sylvilagus audubonii minor,"PARRAL, 22 MI N, 8 MI E OF",Chihuahua,27.297632,-107.998028,1957-08-27,PRESERVED_SPECIMEN,KU
840,Sylvilagus audubonii minor,"PARRAL, 22 MI N, 8 MI E OF",Chihuahua,27.297632,-107.998028,1957-08-27,PRESERVED_SPECIMEN,KU
841,Sylvilagus audubonii minor,"PARRAL, 22 MI N, 8 MI E OF",Chihuahua,27.297632,-107.998028,1957-08-23,PRESERVED_SPECIMEN,KU
842,Sylvilagus audubonii minor,"PARRAL, 25 MI N, 10 MI E OF",Chihuahua,27.341287,-107.968925,1957-08-24,PRESERVED_SPECIMEN,KU
843,Sylvilagus audubonii minor,"PARRAL, 28 MI N, 12 MI E OF",Chihuahua,27.384941,-107.939822,1957-08-26,PRESERVED_SPECIMEN,KU
844,Lepus callotis gaillardi,"SANTO TOMAS, 5 MI S, 1 MI W OF; RANCHO SAN IGNACIO",Chihuahua,28.613273,-107.561584,1957-09-04,PRESERVED_SPECIMEN,KU
845,Lepus callotis gaillardi,"SANTO TOMAS, 5 MI S, 1 MI W OF; RANCHO SAN IGNACIO",Chihuahua,28.613273,-107.561584,1957-09-04,PRESERVED_SPECIMEN,KU
846,Lepus callotis gaillardi,"SANTO TOMAS, 5 MI S, 1 MI W OF; RANCHO SAN IGNACIO",Chihuahua,28.613273,-107.561584,1957-09-04,PRESERVED_SPECIMEN,KU
847,Lepus californicus texianus,"SANTO TOMAS, 4 MI S, 1 MI W OF; RANCHO SAN IGNACIO",Chihuahua,28.6256,-107.567825,1957-09-06,PRESERVED_SPECIMEN,KU
848,Lepus californicus texianus,"SANTO TOMAS, 4 MI S, 1 MI W OF; RANCHO SAN IGNACIO",Chihuahua,28.6256,-107.567825,1957-09-06,PRESERVED_SPECIMEN,KU
849,Lepus callotis gaillardi,"SANTO TOMAS, 4 MI S, 1 MI W OF; RANCHO SAN IGNACIO",Chihuahua,28.6256,-107.567825,1957-09-04,PRESERVED_SPECIMEN,KU
850,Lepus californicus texianus,"PARRAL, 22 MI N, 8 MI E OF",Chihuahua,27.297632,-107.998028,1957-08-23,PRESERVED_SPECIMEN,KU
851,Lepus californicus texianus,"PARRAL, 22 MI N, 8 MI E OF",Chihuahua,27.297632,-107.998028,1957-08-23,PRESERVED_SPECIMEN,KU
852,Lepus californicus texianus,"PARRAL, 22 MI N, 8 MI E OF",Chihuahua,27.297632,-107.998028,1957-08-23,PRESERVED_SPECIMEN,KU
853,Lepus californicus texianus,"PARRAL, 25 MI N, 11 MI E OF",Chihuahua,27.341287,-107.954374,1957-08-22,PRESERVED_SPECIMEN,KU
854,Lepus californicus texianus,"PARRAL, 25 MI N, 11 MI E OF",Chihuahua,27.341287,-107.954374,1957-08-22,PRESERVED_SPECIMEN,KU
855,Lepus californicus texianus,"PARRAL, 25 MI N, 11 MI E OF",Chihuahua,27.341287,-107.954374,1957-08-22,PRESERVED_SPECIMEN,KU
856,Lepus californicus texianus,"PARRAL, 25 MI N, 11 MI E OF",Chihuahua,27.341287,-107.954374,1957-08-22,PRESERVED_SPECIMEN,KU
857,Lepus californicus texianus,"PARRAL, 30 MI N, 12 MI E OF",Chihuahua,27.414044,-107.939822,1957-08-23,PRESERVED_SPECIMEN,KU
858,Lepus californicus texianus,"PARRAL, 30 MI N, 12 MI E OF",Chihuahua,27.414044,-107.939822,1957-08-23,PRESERVED_SPECIMEN,KU
859,Lepus californicus texianus,"CAMARGO, 11 MI W OF",Chihuahua,27.5860566,-105.3027191,1957-08-25,PRESERVED_SPECIMEN,KU
860,Sylvilagus floridanus holzneri,"CREEL, 16 MI S, 6 MI E OF",Chihuahua,27.51988,-107.53666,1957-07-17,PRESERVED_SPECIMEN,KU
861,Sylvilagus floridanus holzneri,"SAN FRANCISCO, 2 MI S, 5 MI W OF",Chihuahua,29.51919,-104.49776,1957-06-28,PRESERVED_SPECIMEN,KU
862,Sylvilagus floridanus holzneri,"SAN FRANCISCO, 2 MI S, 5 MI W OF",Chihuahua,29.51919,-104.49776,1957-06-27,PRESERVED_SPECIMEN,KU
863,Sylvilagus audubonii minor,OJO PALOMO VIEJO,Chihuahua,29.505632,-107.803396,1957-07-04,PRESERVED_SPECIMEN,KU
864,Lepus californicus eremicus,VUELTA DE ALAMOS,Chihuahua,30.75,-107.983333,1957-07-06,PRESERVED_SPECIMEN,KU
865,Lepus californicus texianus,"LA ASCENSION, 6 MI SSE OF",Chihuahua,31.0117796,-107.9585613,1957-07-06,PRESERVED_SPECIMEN,KU
866,Lepus californicus texianus,"LA ASCENSION, 13 MI N, 10 MI E OF",Chihuahua,31.2809417,-107.82862,1957-07-06,PRESERVED_SPECIMEN,KU
867,Lepus californicus texianus,OJO PALOMO VIEJO,Chihuahua,29.505632,-107.803396,1957-07-04,PRESERVED_SPECIMEN,KU
868,Sylvilagus audubonii arizonae,"PUERTO LIBERTAD, 5 MI N, 20 MI E OF",Sonora,29.9770575,-112.3503086,1957-04-03,PRESERVED_SPECIMEN,KU
869,Sylvilagus audubonii arizonae,"PUERTO LIBERTAD, 5 MI N, 20 MI E OF",Sonora,29.9770575,-112.3503086,1957-04-03,PRESERVED_SPECIMEN,KU
870,Sylvilagus audubonii minor,"DUBLAN, 12 MI N OF",Chihuahua,30.6203666,-107.88965,1956-07-02,PRESERVED_SPECIMEN,KU
871,Sylvilagus audubonii minor,"SAN FRANCISCO, 5.5 MI N, 2 MI W OF",Chihuahua,29.62808,-104.44794,1956-06-26,PRESERVED_SPECIMEN,KU
872,Sylvilagus floridanus holzneri,"SAN FRANCISCO, 6 MI N, 3 MI W OF",Chihuahua,29.63534,-104.46455,1956-06-27,PRESERVED_SPECIMEN,KU
873,Lepus californicus texianus,"LOS LAMENTOS, 8 MI ESE OF",Chihuahua,30.52878,-105.69591,1956-07-09,PRESERVED_SPECIMEN,KU
874,Lepus californicus eremicus,"JANOS, 15 MI SE OF",Chihuahua,30.73542,-108.01368,1956-07-02,PRESERVED_SPECIMEN,KU
875,Lepus californicus eremicus,"JANOS, 15 MI SE OF",Chihuahua,30.73542,-108.01368,1956-07-02,PRESERVED_SPECIMEN,KU
876,Lepus californicus eremicus,"SAN FRANCISCO, 1.5 MI N OF",Chihuahua,29.57001,-104.41474,1956-07-01,PRESERVED_SPECIMEN,KU
877,Lepus californicus eremicus,"SAN FRANCISCO, 2 MI N OF",Chihuahua,29.57726,-104.41474,1956-06-29,PRESERVED_SPECIMEN,KU
878,Lepus californicus eremicus,"SAN FRANCISCO, 5.5 MI N, 2 MI W OF",Chihuahua,29.62808,-104.44794,1956-06-26,PRESERVED_SPECIMEN,KU
879,Sylvilagus audubonii goldmani,"GUAYMAS, 5.5 MI N, 5 MI W OF",Sonora,27.9985714,-110.9720698,1955-06-18,PRESERVED_SPECIMEN,KU
880,Sylvilagus audubonii goldmani,"GUAYMAS, 5.5 MI N, 5 MI W OF",Sonora,27.9985714,-110.9720698,1955-06-18,PRESERVED_SPECIMEN,KU
881,Sylvilagus audubonii minor,PARRAS,Coahuila,25.4406259,-102.1827002,1955-07-04,PRESERVED_SPECIMEN,KU
882,Sylvilagus floridanus holzneri,"LAS ADJUNTAS, 5 MI W OF",Durango,23.7314929,-105.5761028,1955-06-28,PRESERVED_SPECIMEN,KU
883,Sylvilagus audubonii parvulus,HACIENDA ATOTONILCO,Durango,24.7375879,-103.8363465,1955-07-01,PRESERVED_SPECIMEN,KU
884,Sylvilagus audubonii parvulus,HACIENDA ATOTONILCO,Durango,24.7375879,-103.8363465,1955-07-01,PRESERVED_SPECIMEN,KU
885,Sylvilagus audubonii goldmani,"CULIACAN, 12 MI N OF",Sinaloa,24.9586371,-107.3984687,1955-06-21,PRESERVED_SPECIMEN,KU
886,Sylvilagus audubonii goldmani,"CULIACAN, 12 MI N OF",Sinaloa,24.9586371,-107.3984687,1955-06-21,PRESERVED_SPECIMEN,KU
887,Sylvilagus audubonii minor,PARRAS,Coahuila,25.4406259,-102.1827002,1955-07-04,PRESERVED_SPECIMEN,KU
888,Sylvilagus floridanus orizabae,"SAN ANTONIO DE LAS ALAZANAS, 13 MI E OF",Coahuila,25.2725793,-100.3716258,1955-07-05,PRESERVED_SPECIMEN,KU
889,Lepus californicus texianus,HACIENDA ATOTONILCO,Durango,24.7375879,-103.8363465,1955-07-01,PRESERVED_SPECIMEN,KU
890,Lepus californicus texianus,HACIENDA ATOTONILCO,Durango,24.7375879,-103.8363465,1955-07-01,PRESERVED_SPECIMEN,KU
891,Lepus californicus texianus,HACIENDA ATOTONILCO,Durango,24.7375879,-103.8363465,1955-07-01,PRESERVED_SPECIMEN,KU
892,Lepus californicus texianus,HACIENDA ATOTONILCO,Durango,24.7375879,-103.8363465,1955-07-01,PRESERVED_SPECIMEN,KU
893,Lepus californicus texianus,HACIENDA ATOTONILCO,Durango,24.7375879,-103.8363465,1955-07-01,PRESERVED_SPECIMEN,KU
894,Lepus alleni palitans,"GUAYMAS, 5.5 MI N, 5 MI W OF",Sonora,27.9985714,-110.9720698,1955-06-18,PRESERVED_SPECIMEN,KU
895,Sylvilagus cunicularius cunicularius,CACAOTEPEC,Oaxaca,17.1290677,-96.8000411,1955-02-20,PRESERVED_SPECIMEN,KU
896,Sylvilagus floridanus chiapensis,CHAMULA,Chiapas,16.7882623,-92.6891099,1955-01-15,PRESERVED_SPECIMEN,KU
897,Sylvilagus floridanus chiapensis,"SAN CRISTOBAL LAS CASAS, 4 MI E OF",Chiapas,16.7374321,-92.5771621,1954-11-15,PRESERVED_SPECIMEN,KU
898,Sylvilagus floridanus chiapensis,"SAN CRISTOBAL LAS CASAS, 4 MI E OF",Chiapas,16.7374321,-92.5771621,1954-11-15,PRESERVED_SPECIMEN,KU
899,Sylvilagus floridanus chiapensis,"SAN CRISTOBAL LAS CASAS, 4 MI E OF",Chiapas,16.7374321,-92.5771621,1954-11-15,PRESERVED_SPECIMEN,KU
900,Sylvilagus floridanus chiapensis,TUXTLA GUTIERREZ,Chiapas,16.7535409,-93.1166199,1955-02-28,PRESERVED_SPECIMEN,KU
901,Sylvilagus floridanus chiapensis,"EL PARAISO, 2 KM N OF",Chiapas,17.1020889,-91.9179454,1955-03-23,PRESERVED_SPECIMEN,KU
902,Sylvilagus brasiliensis truei,"MACUSPANA, 5 MI SE OF",Tabasco,17.708218,-92.5435529,1955-04-28,PRESERVED_SPECIMEN,KU
903,Sylvilagus brasiliensis truei,"TEAPA, 5 MI SW OF",Tabasco,17.4968381,-93.0066193,1955-05-24,PRESERVED_SPECIMEN,KU
904,Sylvilagus brasiliensis truei,"TEAPA, 2 MI E OF",Tabasco,17.5487808,-92.9221725,1955-05-20,PRESERVED_SPECIMEN,KU
905,Sylvilagus audubonii minor,"TORREON DE CANAS, 9.5 MI SE OF",Durango,26.2772709,-105.1766961,1955-01-09,PRESERVED_SPECIMEN,KU
906,Lepus callotis gaillardi,"TORREON DE CANAS, 7.5 MI SE OF",Durango,26.297849,-105.1972757,1955-01-09,PRESERVED_SPECIMEN,KU
907,Lepus californicus texianus,"CIUDAD JUAREZ, 4 MI S, 4 MI E OF",Chihuahua,31.67266,-106.39488,1954-12-22,PRESERVED_SPECIMEN,KU
908,Sylvilagus floridanus aztecus,PUERTO ANGEL,Oaxaca,15.6666407,-96.4903074,1954-09-06,PRESERVED_SPECIMEN,KU
909,Sylvilagus floridanus aztecus,PUERTO ANGEL,Oaxaca,15.6666407,-96.4903074,1954-09-03,PRESERVED_SPECIMEN,KU
910,Sylvilagus floridanus aztecus,CHACALAPA,Oaxaca,16.0749084,-97.5544316,1954-08-30,PRESERVED_SPECIMEN,KU
911,Sylvilagus floridanus orizabae,"VALLE DE BRAVO, 10 MI N, 6 MI E OF",México,19.3392303,-100.0390136,1954-07-27,PRESERVED_SPECIMEN,KU
912,Sylvilagus floridanus restrictus,"TARECUATO, 4.5 MI NE OF",Michoacán,19.8910587,-102.4152694,1954-06-22,PRESERVED_SPECIMEN,KU
913,Sylvilagus floridanus subcinctus,"ZAPOTLANEJO, 2 MI E OF",Jalisco,20.6227697,-103.0394269,1954-06-14,PRESERVED_SPECIMEN,KU
914,Sylvilagus floridanus subcinctus,"ZAPOTLANEJO, 2 MI E OF",Jalisco,20.6227697,-103.0394269,1954-06-14,PRESERVED_SPECIMEN,KU
915,Sylvilagus floridanus subcinctus,"JALOSTOTITLAN, 1 MI S OF",Jalisco,21.1543066,-102.4654685,1954-06-11,PRESERVED_SPECIMEN,KU
916,Sylvilagus floridanus holzneri,"SAIN ALTO, 2 MI W OF",Zacatecas,23.5809783,-103.277931,1957-06-07,PRESERVED_SPECIMEN,KU
917,Sylvilagus floridanus holzneri,"RODEO, 6 MI NW OF; RIO NAZAS",Durango,25.2613376,-104.592,1954-05-30,PRESERVED_SPECIMEN,KU
918,Sylvilagus floridanus holzneri,"RODEO, 6 MI NW OF; RIO NAZAS",Durango,25.2613376,-104.592,1954-05-30,PRESERVED_SPECIMEN,KU
919,Sylvilagus audubonii minor,"LA ZARCA, 1 MI S OF",Durango,25.8207697,-104.7419334,1954-05-28,PRESERVED_SPECIMEN,KU
920,Sylvilagus audubonii minor,"LA ZARCA, 12 MI E OF",Durango,25.8353209,-104.5493089,1954-05-27,PRESERVED_SPECIMEN,KU
921,Lepus californicus asellus,"SOMBRERETE, 6 MI NW OF",Zacatecas,23.6968688,-103.7016855,1954-06-06,PRESERVED_SPECIMEN,KU
922,Lepus callotis callotis,"SUAZ, 2 MI S OF",Durango,24.767885,-104.7736289,1954-06-03,PRESERVED_SPECIMEN,KU
923,Lepus callotis callotis,"SUAZ, 2 MI S OF",Durango,24.767885,-104.7736289,1954-06-01,PRESERVED_SPECIMEN,KU
924,Lepus callotis callotis,"SUAZ, 2 MI S OF",Durango,24.767885,-104.7736289,1954-06-01,PRESERVED_SPECIMEN,KU
925,Lepus callotis callotis,"LAGUNA DE SANTIAQUILLO, SE END OF",Durango,24.8690385,-104.8615795,1954-06-01,PRESERVED_SPECIMEN,KU
926,Lepus callotis callotis,"LAGUNA DE SANTIAQUILLO, SE END OF",Durango,24.8690385,-104.8615795,1954-06-01,PRESERVED_SPECIMEN,KU
927,Lepus callotis callotis,"LAGUNA DE SANTIAQUILLO, SE END OF",Durango,24.8690385,-104.8615795,1954-06-01,PRESERVED_SPECIMEN,KU
928,Lepus californicus asellus,"LAGUNA DE SANTIAQUILLO, SE END OF",Durango,24.8690385,-104.8615795,1954-06-01,PRESERVED_SPECIMEN,KU
929,Lepus callotis callotis,"LAGUNA DE SANTIAQUILLO, SE END OF",Durango,24.8690385,-104.8615795,1954-06-01,PRESERVED_SPECIMEN,KU
930,Lepus callotis callotis,"LAGUNA DE SANTIAQUILLO, SE END OF",Durango,24.8690385,-104.8615795,1954-05-31,PRESERVED_SPECIMEN,KU
931,Lepus californicus asellus,"SUAZ, 7 MI S OF",Durango,24.767885,-104.7736289,1954-06-02,PRESERVED_SPECIMEN,KU
932,Lepus californicus texianus,"LA ZARCA, 2 MI W OF",Durango,25.83532,-104.7710372,1954-05-29,PRESERVED_SPECIMEN,KU
933,Lepus californicus texianus,"LA ZARCA, 2 MI W OF",Durango,25.83532,-104.7710372,1954-05-29,PRESERVED_SPECIMEN,KU
934,Lepus californicus texianus,"LA ZARCA, 6-7 MI S OF",Durango,25.7407389,-104.741933,1954-05-28,PRESERVED_SPECIMEN,KU
935,Lepus californicus texianus,"LA ZARCA, 6-7 MI S OF",Durango,25.7407389,-104.741933,1954-05-28,PRESERVED_SPECIMEN,KU
936,Lepus californicus texianus,"LA ZARCA, 6-7 MI S OF",Durango,25.7407389,-104.741933,1954-05-28,PRESERVED_SPECIMEN,KU
937,Lepus californicus texianus,"LA ZARCA, 9 MI E OF",Durango,25.8353207,-104.59746,1954-05-28,PRESERVED_SPECIMEN,KU
938,Sylvilagus floridanus aztecus,"TEHUANTEPEC, 3 MI NW OF",Oaxaca,16.3560548,-95.2711137,1954-08-05,PRESERVED_SPECIMEN,KU
939,Sylvilagus cunicularius insolitus,"ROSAMORADA, 2 MI SW OF",Nayarit,22.101836,-105.2244461,1954-06-22,PRESERVED_SPECIMEN,KU
940,Sylvilagus audubonii goldmani,"CIUDAD OBREGON, 6 MI NNW OF",Sonora,27.5699094,-109.9727868,1954-06-02,PRESERVED_SPECIMEN,KU
941,Sylvilagus audubonii goldmani,"PERICOS, 1 MI S OF",Sinaloa,25.0684083,-107.6969492,1954-06-13,PRESERVED_SPECIMEN,KU
942,Sylvilagus audubonii goldmani,"PERICOS, 1 MI S OF",Sinaloa,25.0684083,-107.6969492,1954-06-11,PRESERVED_SPECIMEN,KU
943,Lepus californicus merriami,LAS MARGARITAS,Coahuila,28.6890855,-101.7738061,1954-07-18,PRESERVED_SPECIMEN,KU
944,Lepus californicus merriami,LAS MARGARITAS,Coahuila,28.6890855,-101.7738061,1954-07-18,PRESERVED_SPECIMEN,KU
945,Sylvilagus floridanus connectens,"EL ENCINO, 10 KM N, 8 KM W OF",Tamaulipas,23.2298917,-99.194008,1954-05-23,PRESERVED_SPECIMEN,KU
946,Sylvilagus floridanus chapmani,"LAS MARGARITAS, 12 MI S OF",Coahuila,28.5148417,-101.7738052,1954-05-22,PRESERVED_SPECIMEN,KU
947,Sylvilagus audubonii parvulus,"MAJOMA, 8 MI S OF",Zacatecas,23.7417853,-101.7149015,1954-01-26,PRESERVED_SPECIMEN,KU
948,Sylvilagus audubonii parvulus,"MAJOMA, 8 MI S OF",Zacatecas,23.7417853,-101.7149015,1954-01-26,PRESERVED_SPECIMEN,KU
949,Sylvilagus audubonii parvulus,"SAN TIBURCIO, 1 MI SW OF",Zacatecas,24.1359426,-101.4951869,1954-01-25,PRESERVED_SPECIMEN,KU
950,Sylvilagus audubonii minor,"MAJOMA, 8 MI S OF",Zacatecas,23.7417853,-101.7149015,1954-01-28,PRESERVED_SPECIMEN,KU
951,Sylvilagus audubonii minor,"MAJOMA, 8 MI S OF",Zacatecas,23.7417853,-101.7149015,1954-01-27,PRESERVED_SPECIMEN,KU
952,Sylvilagus audubonii minor,"MAJOMA, 8 MI S OF",Zacatecas,23.7417853,-101.7149015,1954-01-27,PRESERVED_SPECIMEN,KU
953,Sylvilagus audubonii minor,"MAJOMA, 8 MI S OF",Zacatecas,23.7417853,-101.7149015,1954-01-26,PRESERVED_SPECIMEN,KU
954,Sylvilagus audubonii minor,"MAJOMA, 8 MI S OF",Zacatecas,23.7417853,-101.7149015,1954-01-26,PRESERVED_SPECIMEN,KU
955,Sylvilagus floridanus orizabae,"ARAMBERRI, 8 MI S OF",Nuevo León,23.9834419,-99.817357,1954-02-21,PRESERVED_SPECIMEN,KU
956,Lepus californicus asellus,"MAJOMA, 8 MI S OF",Zacatecas,23.7417853,-101.7149015,1954-01-29,PRESERVED_SPECIMEN,KU
957,Lepus californicus asellus,"HERRADURA, 4.5 MI SW OF",San Luis Potosí,22.9831793,-101.7981302,1954-02-09,PRESERVED_SPECIMEN,KU
958,Lepus californicus asellus,"SANTA EFIGENIA, 2 MI S OF",Zacatecas,23.7157548,-101.8746252,1954-01-30,PRESERVED_SPECIMEN,KU
959,Lepus californicus asellus,"MAJOMA, 8 MI S OF",Zacatecas,23.7417853,-101.7149015,1954-01-29,PRESERVED_SPECIMEN,KU
960,Lepus californicus asellus,"SANTA TERESA DEL JARRO, 1 MI W OF",Nuevo León,23.7119805,-100.3310332,1954-02-16,PRESERVED_SPECIMEN,KU
961,Lepus callotis callotis,"HERRADURA, 4.5 MI SW OF",San Luis Potosí,22.9831793,-101.7981302,1954-02-10,PRESERVED_SPECIMEN,KU
962,Lepus callotis callotis,"HERRADURA, 4.5 MI SW OF",San Luis Potosí,22.9831793,-101.7981302,1954-02-10,PRESERVED_SPECIMEN,KU
963,Lepus californicus asellus,"VILLA DE COS, 5 MI S OF",Zacatecas,23.2194471,-102.3518644,1954-02-02,PRESERVED_SPECIMEN,KU
964,Lepus californicus asellus,"HERRADURA, 4.5 MI SW OF",San Luis Potosí,22.9831793,-101.7981302,1954-02-10,PRESERVED_SPECIMEN,KU
965,Lepus californicus asellus,"MAJOMA, 8 MI S OF",Zacatecas,23.7417853,-101.7149015,1954-01-28,PRESERVED_SPECIMEN,KU
966,Lepus californicus asellus,"DOCTOR ARROYO, 1 MI W OF",Nuevo León,23.6726456,-100.1949758,1954-02-16,PRESERVED_SPECIMEN,KU
967,Sylvilagus audubonii parvulus,"LA GACHA, 1 MI S OF",Coahuila,28.1811614,-101.5573222,1954-02-13,PRESERVED_SPECIMEN,KU
968,Sylvilagus floridanus nelsoni,"OCAMPO, 22 MI S, 5 MI W OF",Coahuila,26.9946445,-102.4787448,1954-04-04,PRESERVED_SPECIMEN,KU
969,Sylvilagus floridanus nelsoni,"OCAMPO, 20 MI S, 4 MI W OF",Coahuila,27.0236935,-102.4624846,1954-04-07,PRESERVED_SPECIMEN,KU
970,Sylvilagus floridanus nelsoni,"OCAMPO, 20 MI S, 4 MI W OF",Coahuila,27.0236935,-102.4624846,1954-04-07,PRESERVED_SPECIMEN,KU
971,Sylvilagus floridanus chapmani,LAS MARGARITAS; RIO ALAMOS; CANYON MULATO,Coahuila,28.6890855,-101.7738061,1953-03-03,PRESERVED_SPECIMEN,KU
972,Sylvilagus floridanus orizabae,SAN ANTONIO DE LAS ALAZANAS,Coahuila,25.2725786,-100.5793308,1954-04-09,PRESERVED_SPECIMEN,KU
973,Sylvilagus floridanus chapmani,LA GACHA,Coahuila,28.1957129,-101.5573223,1953-12-05,PRESERVED_SPECIMEN,KU
974,Sylvilagus audubonii parvulus,LA GACHA,Coahuila,28.1957129,-101.5573223,1953-12-06,PRESERVED_SPECIMEN,KU
975,Sylvilagus audubonii parvulus,LA GACHA,Coahuila,28.1957129,-101.5573223,1953-12-11,PRESERVED_SPECIMEN,KU
976,Lepus californicus merriami,LA GACHA,Coahuila,28.1957129,-101.5573223,1953-12-08,PRESERVED_SPECIMEN,KU
977,Lepus californicus merriami,"LAS MARGARITAS, 5 MI SW OF",Coahuila,28.6377471,-101.8320172,1954-01-13,PRESERVED_SPECIMEN,KU
978,Lepus californicus merriami,"LAS MARGARITAS, 5 MI SW OF",Coahuila,28.6377471,-101.8320172,1954-01-13,PRESERVED_SPECIMEN,KU
979,Lepus californicus merriami,"LAS MARGARITAS, 1 MI W OF",Coahuila,28.6890855,-101.7902665,1954-01-09,PRESERVED_SPECIMEN,KU
980,Lepus californicus merriami,"LAS MARGARITAS, 1 MI W OF",Coahuila,28.6890855,-101.7902665,1954-01-09,PRESERVED_SPECIMEN,KU
981,Lepus californicus merriami,"LAS MARGARITAS, 1 MI W OF",Coahuila,28.6890855,-101.7902665,1954-01-09,PRESERVED_SPECIMEN,KU
982,Lepus californicus merriami,"LAS MARGARITAS, 1 MI W OF",Coahuila,28.6890855,-101.7902665,1954-01-09,PRESERVED_SPECIMEN,KU
983,Sylvilagus floridanus chapmani,NADADORES,Coahuila,27.0294566,-101.5918634,1953-12-19,PRESERVED_SPECIMEN,KU
984,Lepus californicus merriami,"LAS MARGARITAS, 2 MI SW OF",Coahuila,28.6685562,-101.7970865,1953-09-21,PRESERVED_SPECIMEN,KU
985,Lepus californicus merriami,"LAS MARGARITAS, 1 MI SW OF",Coahuila,28.6788158,-101.7854463,1953-09-24,PRESERVED_SPECIMEN,KU
986,Lepus californicus merriami,LAS MARGARITAS,Coahuila,28.6890855,-101.7738061,1953-09-23,PRESERVED_SPECIMEN,KU
987,Sylvilagus floridanus chapmani,"PIEDRA, 2 MI S, 10 MI W OF; SIERRA DE TAMAULIPAS",Tamaulipas,23.4557192,-98.2645414,1953-06-11,PRESERVED_SPECIMEN,KU
988,Sylvilagus floridanus chapmani,"PIEDRA, 2 MI S, 10 MI W OF; SIERRA DE TAMAULIPAS",Tamaulipas,23.4557192,-98.2645414,1953-06-06,PRESERVED_SPECIMEN,KU
989,Sylvilagus floridanus chapmani,LA PESCA,Tamaulipas,23.7873728,-97.7764759,1953-05-30,PRESERVED_SPECIMEN,KU
990,Sylvilagus floridanus chapmani,LA PESCA,Tamaulipas,23.7873728,-97.7764759,1953-05-25,PRESERVED_SPECIMEN,KU
991,Sylvilagus floridanus chapmani,LA PESCA,Tamaulipas,23.7873728,-97.7764759,1953-05-24,PRESERVED_SPECIMEN,KU
992,Sylvilagus floridanus chapmani,SOTO LA MARINA,Tamaulipas,23.7679283,-98.2078753,1953-05-19,PRESERVED_SPECIMEN,KU
993,Sylvilagus floridanus chapmani,SOTO LA MARINA,Tamaulipas,23.7679283,-98.2078753,1953-05-18,PRESERVED_SPECIMEN,KU
994,Sylvilagus floridanus chapmani,SOTO LA MARINA,Tamaulipas,23.7679283,-98.2078753,1953-05-17,PRESERVED_SPECIMEN,KU
995,Sylvilagus floridanus chapmani,SOTO LA MARINA,Tamaulipas,23.7679283,-98.2078753,1953-05-16,PRESERVED_SPECIMEN,KU
996,Sylvilagus floridanus chapmani,SOTO LA MARINA,Tamaulipas,23.7679283,-98.2078753,1953-05-16,PRESERVED_SPECIMEN,KU
997,Sylvilagus floridanus chapmani,SOTO LA MARINA,Tamaulipas,23.7679283,-98.2078753,1953-05-15,PRESERVED_SPECIMEN,KU
998,Sylvilagus floridanus chapmani,LA GLORIA; RIO SALADO,Nuevo León,26.8003019,-99.8156849,1953-01-06,PRESERVED_SPECIMEN,KU
999,Sylvilagus audubonii minor,"PICO DE JIMULCO, W FOOT OF",Coahuila,25.1336841,-103.2668948,1953-04-05,PRESERVED_SPECIMEN,KU
1000,Sylvilagus audubonii minor,"PICO DE JIMULCO, W FOOT OF",Coahuila,25.1336841,-103.2668948,1953-04-04,PRESERVED_SPECIMEN,KU
1001,Sylvilagus audubonii minor,"GENERAL CEPEDA, 10 MI S, 5 MI W OF; N FOOT OF SIERRA GUADALU",Coahuila,25.2319666,-101.5559342,1953-04-25,PRESERVED_SPECIMEN,KU
1002,Sylvilagus audubonii minor,"GENERAL CEPEDA, 10 MI S, 5 MI W OF; N FOOT OF SIERRA GUADALU",Coahuila,25.2319666,-101.5559342,1953-04-19,PRESERVED_SPECIMEN,KU
1003,Sylvilagus audubonii minor,"GENERAL CEPEDA, 10 MI S, 5 MI W OF; N FOOT OF SIERRA GUADALU",Coahuila,25.2319666,-101.5559342,1953-04-19,PRESERVED_SPECIMEN,KU
1004,Sylvilagus audubonii minor,"GENERAL CEPEDA, 10 MI S, 5 MI W OF; N FOOT OF SIERRA GUADALU",Coahuila,25.2319666,-101.5559342,1953-04-17,PRESERVED_SPECIMEN,KU
1005,Sylvilagus audubonii minor,"GENERAL CEPEDA, 10 MI S, 5 MI W OF; N FOOT OF SIERRA GUADALU",Coahuila,25.2319666,-101.5559342,1953-04-10,PRESERVED_SPECIMEN,KU
1006,Sylvilagus audubonii minor,"JACO, 12 MI S OF; SIERRA ALMAGRE",Chihuahua,27.786741,-103.9558147,1953-03-19,PRESERVED_SPECIMEN,KU
1007,Lepus californicus altamirae,"SOTO LA MARINA, 3 MI N OF",Tamaulipas,23.8115374,-98.2078754,1953-05-21,PRESERVED_SPECIMEN,KU
1008,Lepus californicus altamirae,"SOTO LA MARINA, 2 MI NW OF",Tamaulipas,23.7884833,-98.2292649,1953-05-21,PRESERVED_SPECIMEN,KU
1009,Lepus californicus merriami,LA GLORIA; RIO SALADO,Nuevo León,26.8003019,-99.8156849,1953-05-09,PRESERVED_SPECIMEN,KU
1010,Lepus californicus asellus,"GENERAL CEPEDA, 10 MI S, 5 MI W OF; N FOOT OF SIERRA GUADALU",Coahuila,25.2319666,-101.5559342,1953-04-26,PRESERVED_SPECIMEN,KU
1011,Lepus californicus asellus,"GENERAL CEPEDA, 10 MI S, 5 MI W OF; N FOOT OF SIERRA GUADALU",Coahuila,25.2319666,-101.5559342,1953-04-26,PRESERVED_SPECIMEN,KU
1012,Lepus californicus asellus,"GENERAL CEPEDA, 10 MI S, 5 MI W OF; N FOOT OF SIERRA GUADALU",Coahuila,25.2319666,-101.5559342,1953-04-17,PRESERVED_SPECIMEN,KU
1013,Lepus californicus texianus,"JACO, 5 MI S OF",Chihuahua,27.8885983,-103.9558152,1953-03-18,PRESERVED_SPECIMEN,KU
1014,Lepus californicus texianus,"CAMARGO, 1 MI S OF",Chihuahua,27.672637,-105.1727835,1953-02-28,PRESERVED_SPECIMEN,KU
1015,Lepus californicus texianus,"OJINAGA, 44 MI S, 25 MI W OF; CHILICOTE",Chihuahua,28.9257944,-104.8318523,1953-02-25,PRESERVED_SPECIMEN,KU
1016,Sylvilagus floridanus holzneri,"LAS ADJUNTAS, 7 MI SW OF",Durango,23.659566,-105.5753125,1953-07-14,PRESERVED_SPECIMEN,KU
1017,Sylvilagus floridanus aztecus,"TEHUANTEPEC, 2 MI N, 10 MI W OF",Oaxaca,16.3543876,-95.3913946,1953-07-25,PRESERVED_SPECIMEN,KU
1018,Sylvilagus floridanus aztecus,"MATATLAN, 2 MI SE OF",Oaxaca,16.8438059,-96.3603079,1953-07-24,PRESERVED_SPECIMEN,KU
1019,Sylvilagus audubonii minor,"PARRAS, 12 MI N, 10 MI E OF",Coahuila,25.6152376,-102.0371825,1953-07-12,PRESERVED_SPECIMEN,KU
1020,Sylvilagus audubonii minor,"CASTILLON, 3 MI SSE OF",Coahuila,28.3099917,-103.5480676,1953-06-28,PRESERVED_SPECIMEN,KU
1021,Sylvilagus audubonii minor,"CASTILLON, 6 MI S OF",Coahuila,28.2631133,-103.5669078,1953-06-28,PRESERVED_SPECIMEN,KU
1022,Sylvilagus audubonii minor,"CASTILLON, 6 MI N, 2 MI W OF",Coahuila,28.437377,-103.5997395,1953-06-29,PRESERVED_SPECIMEN,KU
1023,Sylvilagus audubonii minor,"CASTILLON, 6 MI N, 2 MI W OF",Coahuila,28.437377,-103.5997395,1953-06-29,PRESERVED_SPECIMEN,KU
1024,Sylvilagus audubonii minor,"CASTILLON, 6 MI N, 2 MI W OF",Coahuila,28.437377,-103.5997395,1953-06-30,PRESERVED_SPECIMEN,KU
1025,Sylvilagus audubonii minor,"CASTILLON, 7 MI N, 3 MI W OF",Coahuila,28.4518964,-103.61616,1953-06-30,PRESERVED_SPECIMEN,KU
1026,Sylvilagus audubonii minor,"CASTILLON, 9 MI N, 6 MI W OF",Coahuila,28.4809351,-103.6654014,1953-06-30,PRESERVED_SPECIMEN,KU
1027,Sylvilagus audubonii minor,"HECHICEROS, 3 MI S, 7 MI E OF",Coahuila,28.6169412,-103.456457,1953-07-04,PRESERVED_SPECIMEN,KU
1028,Sylvilagus audubonii minor,"EL PINO, 1 MI SW OF",Coahuila,28.473937,-103.2800119,1953-07-05,PRESERVED_SPECIMEN,KU
1029,Sylvilagus audubonii minor,"SAN FRANCISCO, 1 MI S OF",Chihuahua,29.53371,-104.41474,1953-06-27,PRESERVED_SPECIMEN,KU
1030,Sylvilagus audubonii minor,"SAN FRANCISCO, 0.5 MI E OF",Chihuahua,29.54823,-104.40643,1953-06-26,PRESERVED_SPECIMEN,KU
1031,Sylvilagus audubonii minor,"HECHICEROS, 2 MI S OF",Chihuahua,28.63101,-103.57142,1953-07-05,PRESERVED_SPECIMEN,KU
1032,Lepus californicus texianus,"CASTILLON, 8 MI NE OF",Coahuila,28.4323877,-103.4740564,1953-07-05,PRESERVED_SPECIMEN,KU
1033,Lepus californicus texianus,"PENASQUITOS, 2 MI NE OF",Chihuahua,27.95387,-104.66021,1953-06-26,PRESERVED_SPECIMEN,KU
1034,Lepus californicus texianus,"PENASQUITOS, 2 MI N, 3 MI E OF",Chihuahua,27.96238,-104.63428,1953-06-26,PRESERVED_SPECIMEN,KU
1035,Lepus californicus texianus,"SAN FRANCISCO, 6 MI SW OF",Chihuahua,29.48663,-104.48518,1953-06-26,PRESERVED_SPECIMEN,KU
1036,Lepus californicus texianus,"HECHICEROS, 2 MI SE OF",Chihuahua,28.63951,-103.54814,1953-07-01,PRESERVED_SPECIMEN,KU
1037,Lepus californicus texianus,"HECHICEROS, 2 MI SE OF",Chihuahua,28.63951,-103.54814,1953-07-01,PRESERVED_SPECIMEN,KU
1038,Lepus californicus texianus,"ENCINILLAS, 11 MI N, 1 MI E OF",Chihuahua,29.41107,-106.36928,1953-06-20,PRESERVED_SPECIMEN,KU
1039,Lepus californicus texianus,"ENCINILLAS, 11 MI N, 1 MI E OF",Chihuahua,29.41107,-106.36928,1953-06-20,PRESERVED_SPECIMEN,KU
1040,Lepus californicus texianus,"TANQUE ALVAREZ, 23 MI S, 8 MI E OF",Coahuila,27.6132713,-102.5078786,1953-06-07,PRESERVED_SPECIMEN,KU
1041,Lepus californicus texianus,"CASTILLON, 21 MI S, 10 MI W OF",Coahuila,28.0452905,-103.7310606,1953-06-28,PRESERVED_SPECIMEN,KU
1042,Lepus californicus texianus,"CASTILLON, 19 MI S, 9 MI W OF",Coahuila,28.0743395,-103.7146404,1953-06-28,PRESERVED_SPECIMEN,KU
1043,Lepus californicus texianus,"CASTILLON, 12 MI S, 2 MI W OF",Coahuila,28.1759863,-103.5997381,1953-06-28,PRESERVED_SPECIMEN,KU
1044,Lepus californicus texianus,"CASTILLON, 5 MI S OF",Coahuila,28.2776328,-103.5669079,1953-06-28,PRESERVED_SPECIMEN,KU
1045,Lepus californicus texianus,"CASTILLON, 4 MI S OF",Coahuila,28.2921623,-103.5669079,1953-06-28,PRESERVED_SPECIMEN,KU
1046,Lepus californicus texianus,"CASTILLON, 4 MI S OF",Coahuila,28.2921623,-103.5669079,1953-06-28,PRESERVED_SPECIMEN,KU
1047,Lepus californicus texianus,"CASTILLON, 3 MI S OF",Coahuila,28.3066818,-103.566908,1953-06-28,PRESERVED_SPECIMEN,KU
1048,Lepus californicus texianus,"CASTILLON, 6 MI W OF",Coahuila,28.3502398,-103.6654007,1953-07-05,PRESERVED_SPECIMEN,KU
1049,Lepus californicus texianus,"CASTILLON, 6 MI N, 2 MI W OF",Coahuila,28.437377,-103.5997395,1953-06-30,PRESERVED_SPECIMEN,KU
1050,Lepus californicus texianus,"CASTILLON, 6 MI N, 2 MI W OF",Coahuila,28.437377,-103.5997395,1953-06-29,PRESERVED_SPECIMEN,KU
1051,Lepus californicus texianus,"CASTILLON, 6 MI N, 2 MI W OF",Coahuila,28.437377,-103.5997395,1953-06-29,PRESERVED_SPECIMEN,KU
1052,Lepus californicus texianus,"CASTILLON, 6 MI N, 2 MI W OF",Coahuila,28.437377,-103.5997395,1953-06-29,PRESERVED_SPECIMEN,KU
1053,Lepus californicus texianus,"CASTILLON, 6 MI N, 2 MI W OF",Coahuila,28.437377,-103.5997395,1953-06-29,PRESERVED_SPECIMEN,KU
1054,Lepus californicus texianus,"CASTILLON, 7 MI N, 3 MI W OF",Coahuila,28.4518964,-103.61616,1953-06-30,PRESERVED_SPECIMEN,KU
1055,Lepus californicus texianus,"CASTILLON, 9 MI N, 6 MI W OF",Coahuila,28.4809351,-103.6654014,1953-06-30,PRESERVED_SPECIMEN,KU
1056,Lepus californicus texianus,"HECHICEROS, 2 MI S, 6 MI W OF",Chihuahua,28.63101,-103.67019,1953-07-04,PRESERVED_SPECIMEN,KU
1057,Lepus californicus texianus,"HECHICEROS, 2 MI SE OF",Chihuahua,28.63951,-103.54814,1953-07-01,PRESERVED_SPECIMEN,KU
1058,Lepus californicus texianus,"HECHICEROS, 2 MI SE OF",Chihuahua,28.63951,-103.54814,1953-07-01,PRESERVED_SPECIMEN,KU
1059,Lepus californicus texianus,"HECHICEROS, 2 MI SE OF",Chihuahua,28.63951,-103.54814,1953-07-01,PRESERVED_SPECIMEN,KU
1060,Lepus californicus texianus,"SAN FRANCISCO, 1 MI S OF",Chihuahua,29.53371,-104.41474,1953-06-26,PRESERVED_SPECIMEN,KU
1061,Lepus californicus texianus,"SAN FRANCISCO, 1 MI S OF",Chihuahua,29.53371,-104.41474,1953-06-26,PRESERVED_SPECIMEN,KU
1062,Lepus californicus texianus,"PENASQUITOS, 3 MI SW OF",Chihuahua,27.90253,-104.71802,1953-06-26,PRESERVED_SPECIMEN,KU
1063,Lepus californicus texianus,"PENASQUITOS, 3.5 MI N, 6.5 MI E OF",Chihuahua,27.98416,-104.57705,1953-06-26,PRESERVED_SPECIMEN,KU
1064,Lepus californicus texianus,"PENASQUITOS, 2 MI N, 3 MI E OF",Chihuahua,27.96238,-104.63428,1953-06-26,PRESERVED_SPECIMEN,KU
1065,Lepus californicus texianus,"PENASQUITOS, 5 MI N, 13.5 MI E OF",Chihuahua,28.00595,-104.46259,1953-06-26,PRESERVED_SPECIMEN,KU
1066,Lepus californicus texianus,"PENASQUITOS, 5 MI N, 13.5 MI E OF",Chihuahua,28.00595,-104.46259,1953-06-26,PRESERVED_SPECIMEN,KU
1067,Lepus californicus texianus,"PENASQUITOS, 5 MI N, 12.5 MI E OF",Chihuahua,28.00595,-104.47894,1953-06-26,PRESERVED_SPECIMEN,KU
1068,Lepus californicus texianus,"CIUDAD JUAREZ, 28 MI S, 2 MI W OF",Chihuahua,31.32431,-106.49677,1953-06-18,PRESERVED_SPECIMEN,KU
1069,Lepus californicus texianus,"CIUDAD JUAREZ, 28 MI S, 2 MI W OF",Chihuahua,31.32431,-106.49677,1953-06-18,PRESERVED_SPECIMEN,KU
1070,Sylvilagus audubonii parvulus,"DURANGO, 15 MI S, 29 MI E OF",Durango,23.8057431,-104.2479689,1952-07-12,PRESERVED_SPECIMEN,KU
1071,Sylvilagus audubonii parvulus,"CHORRO, 1 MI N OF",Durango,24.3003837,-104.4169482,1952-07-10,PRESERVED_SPECIMEN,KU
1072,Sylvilagus audubonii parvulus,"CHORRO, 1 MI N OF",Durango,24.3003837,-104.4169482,1952-07-01,PRESERVED_SPECIMEN,KU
1073,Sylvilagus audubonii minor,"BELLA UNION, 7 MI S, 4 MI E OF",Coahuila,26.3485257,-100.7694402,1952-06-25,PRESERVED_SPECIMEN,KU
1074,Sylvilagus audubonii minor,"SAN LAZARO, 1 MI S OF",Coahuila,26.2818751,-101.348514,1952-06-24,PRESERVED_SPECIMEN,KU
1075,Sylvilagus floridanus chapmani,"SAN JUAN DE SABINAS, 2 MI S, 3 MI E OF",Coahuila,27.8994828,-101.2604255,1952-06-23,PRESERVED_SPECIMEN,KU
1076,Sylvilagus audubonii minor,"TANQUE ALVAREZ, 13 MI N, 11 MI W OF",Coahuila,28.136071,-102.8185989,1952-07-04,PRESERVED_SPECIMEN,KU
1077,Sylvilagus floridanus chapmani,"NAVA, 20 MI E OF",Coahuila,28.42107,-100.4774727,1952-06-16,PRESERVED_SPECIMEN,KU
1078,Sylvilagus floridanus chapmani,"GUERRERO, 5 MI SE OF",Coahuila,28.2571294,-100.3278913,1952-06-16,PRESERVED_SPECIMEN,KU
1079,Sylvilagus floridanus chapmani,"GUERRERO, 5 MI SE OF",Coahuila,28.2571294,-100.3278913,1952-06-16,PRESERVED_SPECIMEN,KU
1080,Sylvilagus audubonii parvulus,"PIEDRAS NEGRAS, 4 MI N OF",Coahuila,28.756098,-100.5327357,1952-06-17,PRESERVED_SPECIMEN,KU
1081,Sylvilagus audubonii parvulus,"PIEDRAS NEGRAS, 4 MI N OF",Coahuila,28.756098,-100.5327357,1952-06-17,PRESERVED_SPECIMEN,KU
1082,Sylvilagus floridanus chapmani,"JIMENEZ, 2 MI W OF",Coahuila,29.0707764,-100.7023445,1952-06-19,PRESERVED_SPECIMEN,KU
1083,Sylvilagus floridanus chapmani,"JIMENEZ, 2 MI W OF",Coahuila,29.0707764,-100.7023445,1952-06-19,PRESERVED_SPECIMEN,KU
1084,Lepus californicus texianus,"CHORRO, 1 MI N OF",Durango,24.3003837,-104.4169482,1952-07-10,PRESERVED_SPECIMEN,KU
1085,Lepus callotis callotis,"CHORRO, 1 MI N OF",Durango,24.3003837,-104.4169482,1952-07-10,PRESERVED_SPECIMEN,KU
1086,Lepus callotis callotis,"CHORRO, 1 MI N OF",Durango,24.3003837,-104.4169482,1952-07-10,PRESERVED_SPECIMEN,KU
1087,Lepus californicus texianus,"LERDO, 4 MI WSW OF",Durango,25.5141736,-103.5784491,1952-07-10,PRESERVED_SPECIMEN,KU
1088,Lepus californicus merriami,"LA GLORIA, 14 MI NW OF",Nuevo León,27.0561216,-100.0070348,1952-06-12,PRESERVED_SPECIMEN,KU
1089,Lepus californicus merriami,"LA GLORIA, 30 MI N, 30 MI W OF",Nuevo León,27.3480695,-100.3327041,1952-06-13,PRESERVED_SPECIMEN,KU
1090,Lepus californicus asellus,"BELLA UNION, 7 MI S, 4 MI E OF",Coahuila,26.3485257,-100.7694402,1952-06-26,PRESERVED_SPECIMEN,KU
1091,Lepus californicus asellus,"BELLA UNION, 7 MI S, 4 MI E OF",Coahuila,26.3485257,-100.7694402,1952-06-26,PRESERVED_SPECIMEN,KU
1092,Lepus californicus asellus,"MURALLA, 3 MI S, 3 MI E OF",Coahuila,26.2531574,-101.2994726,1952-06-23,PRESERVED_SPECIMEN,KU
1093,Lepus californicus texianus,"CUATRO CIENEGAS, 8 MI N, 25 MI W OF",Coahuila,27.1025226,-102.4306712,1952-07-05,PRESERVED_SPECIMEN,KU
1094,Lepus californicus merriami,"NAVA, 20 MI E OF",Coahuila,28.42107,-100.4774727,1952-06-16,PRESERVED_SPECIMEN,KU
1095,Lepus californicus merriami,"NAVA, 20 MI E OF",Coahuila,28.42107,-100.4774727,1952-06-16,PRESERVED_SPECIMEN,KU
1096,Lepus californicus merriami,"NAVA, 20 MI E OF",Coahuila,28.42107,-100.4774727,1952-06-16,PRESERVED_SPECIMEN,KU
1097,Lepus californicus merriami,"NAVA, 20 MI E OF",Coahuila,28.42107,-100.4774727,1952-06-16,PRESERVED_SPECIMEN,KU
1098,Lepus californicus merriami,"GUERRERO, 5 MI SE OF",Coahuila,28.2571294,-100.3278913,1952-06-16,PRESERVED_SPECIMEN,KU
1099,Lepus californicus texianus,"TANQUE ALVAREZ, 18 MI S, 14 MI E OF",Coahuila,27.685879,-102.4097566,1952-07-06,PRESERVED_SPECIMEN,KU
1100,Lepus californicus texianus,"ACEBUCHES, 5 MI S OF",Coahuila,28.1622027,-102.9030111,1952-07-05,PRESERVED_SPECIMEN,KU
1101,Lepus californicus texianus,"OCAMPO, 22 MI N, 5 MI W OF",Coahuila,27.6336807,-102.478748,1952-07-01,PRESERVED_SPECIMEN,KU
1102,Lepus californicus texianus,"OCAMPO, 44 MI N, 15 MI W OF",Coahuila,27.9544034,-102.615715,1952-07-01,PRESERVED_SPECIMEN,KU
1103,Lepus californicus texianus,"OCAMPO, 30 MI N, 7 MI W OF",Coahuila,27.7506903,-102.4992991,1952-07-01,PRESERVED_SPECIMEN,KU
1104,Sylvilagus floridanus chapmani,"HACIENDA LA MARIPOSA, 1 MI W OF",Coahuila,28.1509447,-101.7675332,1952-05-25,PRESERVED_SPECIMEN,KU
1105,Sylvilagus audubonii minor,"BOQUILLAS, 10 MI S, 5 MI E OF",Coahuila,29.0426888,-102.8537945,1952-03-03,PRESERVED_SPECIMEN,KU
1106,Sylvilagus audubonii parvulus,"SABINAS, 10 MI ESE OF",Coahuila,27.8002305,-100.9618617,1951-11-05,PRESERVED_SPECIMEN,KU
1107,Lepus californicus merriami,"SABINAS, 10 MI ESE OF",Coahuila,27.8002305,-100.9618617,1951-11-05,PRESERVED_SPECIMEN,KU
1108,Lepus californicus texianus,"ACATITA, 4 MI N OF",Coahuila,26.5918406,-101.2390727,1951-04-17,PRESERVED_SPECIMEN,KU
1109,Lepus californicus texianus,"ACATITA, 4 MI N OF",Coahuila,26.5918406,-101.2390727,1951-04-17,PRESERVED_SPECIMEN,KU
1110,Lepus californicus texianus,"SIERRA MOJADA, 3 MI NE OF",Coahuila,27.2886037,-103.6570749,1951-05-02,PRESERVED_SPECIMEN,KU
1111,Sylvilagus audubonii minor,"PARRAL, 5 MI E OF",Chihuahua,26.941674,-105.591731,1951-05-08,PRESERVED_SPECIMEN,KU
1112,Sylvilagus audubonii parvulus,"CHOCOLATE, 2 MI NNW OF",Durango,25.3211231,-103.6424817,1951-01-24,PRESERVED_SPECIMEN,KU
1113,Sylvilagus audubonii minor,"LERDO, 13 MI SW OF",Durango,25.4026887,-103.6584385,1951-01-24,PRESERVED_SPECIMEN,KU
1114,Sylvilagus audubonii minor,"LERDO, 9 MI S, 10 MI W OF",Durango,25.4101813,-103.679376,1951-01-23,PRESERVED_SPECIMEN,KU
1115,Sylvilagus audubonii minor,"TORREON, 10 MI E OF",Coahuila,25.5447775,-103.2963825,1951-01-09,PRESERVED_SPECIMEN,KU
1116,Lepus californicus texianus,"PEDRICENA, 2 MI E OF",Durango,25.1195227,-103.7619636,1951-01-28,PRESERVED_SPECIMEN,KU
1117,Lepus californicus texianus,"TORREON, 3 MI SE OF",Coahuila,25.5139102,-103.4224404,1951-01-26,PRESERVED_SPECIMEN,KU
1118,Lepus californicus texianus,"TORREON, 10 MI E OF",Coahuila,25.5447775,-103.2963825,1951-01-10,PRESERVED_SPECIMEN,KU
1119,Sylvilagus audubonii parvulus,"AGUASCALIENTES, 3 MI SW OF",Aguascalientes,21.8569966,-102.323258,1950-10-03,PRESERVED_SPECIMEN,KU
1120,Sylvilagus audubonii parvulus,"SAN LUIS POTOSI, 10 MI NE OF",San Luis Potosí,22.2455715,-100.8844285,1950-07-30,PRESERVED_SPECIMEN,KU
1121,Sylvilagus audubonii parvulus,"SAN LUIS POTOSI, 10 MI NE OF",San Luis Potosí,22.2455715,-100.8844285,1950-07-29,PRESERVED_SPECIMEN,KU
1122,Sylvilagus audubonii parvulus,"CIUDAD DEL MAIZ, 14 MI N, 29 MI W OF; 2 MI NW OF TEPEYAC",San Luis Potosí,22.6025229,-100.0262995,1950-07-31,PRESERVED_SPECIMEN,KU
1123,Lepus callotis callotis,"APATZINGAN, 24 MI S OF; 0.5 MI S OF LAS CRUCES",Michoacán,18.7306606,-102.3473765,1950-12-04,PRESERVED_SPECIMEN,KU
1124,Lepus callotis callotis,"LAS CRUCES, 3 MI N OF; 21 MI S APATZINGAN",Michoacán,18.7873522,-102.2490644,1950-12-04,PRESERVED_SPECIMEN,KU
1125,Lepus callotis callotis,"APATZINGAN, 19 MI S OF; 5 MI N OF LAS CRUCES",Michoacán,18.8033571,-102.3473768,1950-12-05,PRESERVED_SPECIMEN,KU
1126,Lepus callotis callotis,"APATZINGAN, 19 MI S OF; 5 MI N OF LAS CRUCES",Michoacán,18.8033571,-102.3473768,1950-12-05,PRESERVED_SPECIMEN,KU
1127,Lepus callotis callotis,"SAN JUAN DE LOS LAGOS, 14 MI SW OF",Jalisco,21.1023079,-102.4750706,1950-10-07,PRESERVED_SPECIMEN,KU
1128,Lepus callotis callotis,"SAN JUAN DE LOS LAGOS, 14 MI SW OF",Jalisco,21.1023079,-102.4750706,1950-10-07,PRESERVED_SPECIMEN,KU
1129,Sylvilagus audubonii minor,"SAN ANTONIO DE LAS ALAZANAS, 2 MI N, 2 MI E OF",Coahuila,25.3016805,-100.5502272,1950-03-26,PRESERVED_SPECIMEN,KU
1130,Sylvilagus audubonii minor,"SALTILLO, 15 MI N, 41 MI W OF; LA PASTORA RANCHO",Coahuila,25.6519418,-101.5967971,1950-06-24,PRESERVED_SPECIMEN,KU
1131,Lepus californicus asellus,"SALTILLO, 15 MI N, 41 MI W OF; LA PASTORA RANCHO",Coahuila,25.6519418,-101.5967971,1950-06-25,PRESERVED_SPECIMEN,KU
1132,Lepus californicus asellus,"SALTILLO, 15 MI N, 41 MI W OF; LA PASTORA RANCHO",Coahuila,25.6519418,-101.5967971,1950-06-22,PRESERVED_SPECIMEN,KU
1133,Sylvilagus floridanus connectens,"CIUDAD VICTORIA, 70 KM S OF; 2 KM W OF EL CARRIZO",Tamaulipas,23.2390586,-99.1159501,1950-04-02,PRESERVED_SPECIMEN,KU
1134,Sylvilagus floridanus subcinctus,"GUADALAJARA, 21 MI SW OF",Jalisco,20.4608673,-103.5623994,1950-05-18,PRESERVED_SPECIMEN,KU
1135,Sylvilagus floridanus restrictus,"JIQUILPAN, 11 MI W OF",Michoacán,19.9941893,-102.8865738,1950-05-24,PRESERVED_SPECIMEN,KU
1136,Sylvilagus floridanus restrictus,"JIQUILPAN, 11 MI W OF",Michoacán,19.9941893,-102.8865738,1950-05-24,PRESERVED_SPECIMEN,KU
1137,Sylvilagus cunicularius pacificus,"TECPAN, 5 MI ESE OF",Guerrero,17.1934985,-100.5592965,1950-05-05,PRESERVED_SPECIMEN,KU
1138,Sylvilagus cunicularius pacificus,"TECPAN, 5 MI ESE OF",Guerrero,17.1934985,-100.5592965,1950-05-05,PRESERVED_SPECIMEN,KU
1139,Sylvilagus floridanus restrictus,"ZAMORA, 1 MI S, 11 MI W OF",Michoacán,19.9746117,-102.4531936,1950-05-24,PRESERVED_SPECIMEN,KU
1140,Sylvilagus floridanus subcinctus,"TUXCUECA, 2.5 MI E OF; S SIDE OF LAGO DE CHAPALA",Jalisco,20.1540849,-103.1525027,1950-05-26,PRESERVED_SPECIMEN,KU
1141,Sylvilagus floridanus subcinctus,"ZAPOTLANEJO, 1 MI SW OF",Jalisco,20.6124811,-103.0788198,1950-05-31,PRESERVED_SPECIMEN,KU
1142,Sylvilagus floridanus subcinctus,"GUADALAJARA, 2 MI S, 4 MI W OF",Jalisco,20.6481073,-103.4081486,1950-06-15,PRESERVED_SPECIMEN,KU
1143,Sylvilagus audubonii parvulus,"TEPATITLAN, 3 MI SW OF",Jalisco,20.7863451,-102.7921727,1950-05-31,PRESERVED_SPECIMEN,KU
1144,Sylvilagus floridanus subcinctus,"YAHUALICA, 7 MI S, 1 MI E OF",Jalisco,21.0780396,-102.8694877,1950-06-14,PRESERVED_SPECIMEN,KU
1145,Sylvilagus audubonii parvulus,"YAHUALICA, 5 MI S, 1 MI E OF",Jalisco,21.1094412,-102.876206,1950-05-31,PRESERVED_SPECIMEN,KU
1146,Sylvilagus audubonii parvulus,"YAHUALICA, 3 MI S OF",Jalisco,21.1385428,-102.8907585,1950-06-14,PRESERVED_SPECIMEN,KU
1147,Sylvilagus floridanus subcinctus,"YAHUALICA, 2 MI S, 9 MI W OF",Jalisco,21.1507158,-103.0244616,1950-06-14,PRESERVED_SPECIMEN,KU
1148,Lepus callotis callotis,"GUADALAJARA, 7 MI SE OF",Jalisco,20.6049137,-103.2742893,1950-06-15,PRESERVED_SPECIMEN,KU
1149,Lepus callotis callotis,"YAHUALICA, 5 MI W OF",Jalisco,21.1797847,-102.9624703,1950-06-14,PRESERVED_SPECIMEN,KU
1150,Lepus callotis callotis,"YAHUALICA, 5 MI W OF",Jalisco,21.1797847,-102.9624703,1950-06-14,PRESERVED_SPECIMEN,KU
1151,Lepus callotis callotis,"AYUTLA, 11 MI NW OF",Jalisco,20.2426362,-104.4578554,1950-04-19,PRESERVED_SPECIMEN,KU
1152,Lepus callotis callotis,"TEPATITLAN, 4 MI N, 1 MI W OF",Jalisco,20.8754151,-102.7758557,1950-05-31,PRESERVED_SPECIMEN,KU
1153,Lepus callotis callotis,"YAHUALICA, 3 MI NW OF",Jalisco,21.2130613,-102.9216275,1950-05-31,PRESERVED_SPECIMEN,KU
1154,Lepus callotis callotis,"YAHUALICA, 3 MI NW OF",Jalisco,21.2130613,-102.9216275,1950-05-31,PRESERVED_SPECIMEN,KU
1155,Sylvilagus floridanus connectens,"CIUDAD VICTORIA, 70 KM S OF; 2 KM W OF EL CARRIZO",Tamaulipas,23.2390586,-99.1159501,1950-01-29,PRESERVED_SPECIMEN,KU
1156,Sylvilagus audubonii parvulus,"PIEDRAS NEGRAS, 15 MI N, 8 MI W OF",Coahuila,28.9158219,-100.6644898,1950-04-01,PRESERVED_SPECIMEN,KU
1157,Sylvilagus audubonii parvulus,"HACIENDA SAN MIGUEL, 11 MI W OF",Coahuila,29.2230579,-101.5313428,1950-04-04,PRESERVED_SPECIMEN,KU
1158,Sylvilagus audubonii parvulus,"VILLA ACUNA, 1 MI S, 9 MI W OF",Coahuila,29.3056869,-101.0826321,1950-04-03,PRESERVED_SPECIMEN,KU
1159,Sylvilagus floridanus chapmani,"VILLA ACUNA, 1 MI S, 9 MI W OF",Coahuila,29.3056869,-101.0826321,1950-04-03,PRESERVED_SPECIMEN,KU
1160,Sylvilagus audubonii parvulus,"VILLA ACUNA, 1 MI S, 9 MI W OF",Coahuila,29.3056869,-101.0826321,1950-04-02,PRESERVED_SPECIMEN,KU
1161,Sylvilagus audubonii parvulus,"VILLA ACUNA, 1 MI S, 9 MI W OF",Coahuila,29.3056869,-101.0826321,1950-04-02,PRESERVED_SPECIMEN,KU
1162,Sylvilagus audubonii parvulus,"VILLA ACUNA, 1 MI S, 9 MI W OF",Coahuila,29.3056869,-101.0826321,1950-04-02,PRESERVED_SPECIMEN,KU
1163,Sylvilagus audubonii parvulus,"VILLA ACUNA, 1 MI S, 9 MI W OF",Coahuila,29.3056869,-101.0826321,1950-04-02,PRESERVED_SPECIMEN,KU
1164,Sylvilagus audubonii parvulus,"VILLA ACUNA, 1 MI S, 9 MI W OF",Coahuila,29.3056869,-101.0826321,1950-04-02,PRESERVED_SPECIMEN,KU
1165,Lepus californicus asellus,"SALTILLO, 5 MI S, 6 MI E OF",Coahuila,25.3609269,-100.904179,1950-03-20,PRESERVED_SPECIMEN,KU
1166,Lepus californicus asellus,"SALTILLO, 5 MI S, 6 MI E OF",Coahuila,25.3609269,-100.904179,1950-03-17,PRESERVED_SPECIMEN,KU
1167,Lepus callotis callotis,"GUADALAJARA, 5 MI N, 18 MI W OF",Jalisco,20.7496889,-103.6243941,1950-02-15,PRESERVED_SPECIMEN,KU
1168,Lepus californicus merriami,"PIEDRA BLANCA, 16 MI N, 21 MI E OF; CANON DEL COCHINO",Coahuila,29.2658642,-102.0865968,1950-04-06,PRESERVED_SPECIMEN,KU
1169,Lepus californicus merriami,"SAN GERONIMO, 3 MI S, 5 MI E OF",Coahuila,28.4712258,-101.1180388,1950-04-10,PRESERVED_SPECIMEN,KU
1170,Lepus californicus merriami,"PIEDRA BLANCA, 25 MI S, 8 MI E OF",Coahuila,28.6705441,-102.301379,1950-04-08,PRESERVED_SPECIMEN,KU
1171,Lepus californicus merriami,"VILLA ACUNA, 1 MI S, 8 MI W OF",Coahuila,29.305687,-101.0660617,1950-04-02,PRESERVED_SPECIMEN,KU
1172,Lepus californicus merriami,"VILLA ACUNA, 1 MI S, 8 MI W OF",Coahuila,29.305687,-101.0660617,1950-04-02,PRESERVED_SPECIMEN,KU
1173,Lepus californicus merriami,"HACIENDA SAN MIGUEL, 11 MI W OF",Coahuila,29.2230579,-101.5313428,1950-04-05,PRESERVED_SPECIMEN,KU
1174,Lepus californicus merriami,"HACIENDA SAN MIGUEL, 11 MI W OF",Coahuila,29.2230579,-101.5313428,1950-04-05,PRESERVED_SPECIMEN,KU
1175,Lepus californicus merriami,"HACIENDA SAN MIGUEL, 11 MI W OF",Coahuila,29.2230579,-101.5313428,1950-04-04,PRESERVED_SPECIMEN,KU
1176,Lepus californicus merriami,"VILLA ACUNA, 1 MI S, 5 MI W OF",Coahuila,29.3056871,-101.0163605,1950-04-02,PRESERVED_SPECIMEN,KU
1177,Lepus californicus merriami,"VILLA ACUNA, 1 MI S, 9 MI W OF",Coahuila,29.3056869,-101.0826321,1950-04-02,PRESERVED_SPECIMEN,KU
1178,Lepus californicus curti,"MATAMOROS, 90 MI S, 10 MI W OF",Tamaulipas,24.5542175,-97.6625571,1950-03-21,PRESERVED_SPECIMEN,KU
1179,Lepus californicus curti,"MATAMOROS, 88 MI S, 10 MI W OF",Tamaulipas,24.5832763,-97.6625572,1950-03-20,PRESERVED_SPECIMEN,KU
1180,Lepus californicus curti,"MATAMOROS, 88 MI S, 10 MI W OF",Tamaulipas,24.5832763,-97.6625572,1950-03-19,PRESERVED_SPECIMEN,KU
1181,Sylvilagus audubonii minor,"GOMEZ FARIAS, 7 MI S, 1 MI E OF",Coahuila,24.8637935,-101.0175576,1949-11-19,PRESERVED_SPECIMEN,KU
1182,Sylvilagus floridanus chapmani,"ALLENDE, 3 MI N, 1 MI E OF",Coahuila,28.3916737,-100.8392395,1949-10-25,PRESERVED_SPECIMEN,KU
1183,Sylvilagus floridanus subcinctus,"GUADALAJARA, 16 MI S OF",Jalisco,20.4441229,-103.3463163,1949-07-04,PRESERVED_SPECIMEN,KU
1184,Sylvilagus brasiliensis truei,"JESUS CARRANZA, 30 KM SSE OF",Veracruz,17.1799044,-94.9086076,1949-05-13,PRESERVED_SPECIMEN,KU
1185,Sylvilagus floridanus connectens,POTRERO VIEJO,Veracruz,18.876667,-96.840556,1949-03-11,PRESERVED_SPECIMEN,KU
1186,Sylvilagus floridanus connectens,POTRERO VIEJO,Veracruz,18.876667,-96.840556,1949-03-11,PRESERVED_SPECIMEN,KU
1187,Sylvilagus floridanus connectens,POTRERO VIEJO,Veracruz,18.876667,-96.840556,1949-03-11,PRESERVED_SPECIMEN,KU
1188,Sylvilagus floridanus connectens,POTRERO VIEJO,Veracruz,18.876667,-96.840556,1949-04-19,PRESERVED_SPECIMEN,KU
1189,Sylvilagus floridanus connectens,POTRERO VIEJO,Veracruz,18.876667,-96.840556,1949-04-19,PRESERVED_SPECIMEN,KU
1190,Sylvilagus floridanus connectens,POTRERO VIEJO,Veracruz,18.876667,-96.840556,1949-04-19,PRESERVED_SPECIMEN,KU
1191,Sylvilagus floridanus connectens,POTRERO VIEJO,Veracruz,18.876667,-96.840556,1949-04-19,PRESERVED_SPECIMEN,KU
1192,Sylvilagus cunicularius cunicularius,"HUACALAPA, 4 KM E OF; SIERRA DE OMILTEME",Guerrero,17.4798765,-99.5773295,1948-05-29,PRESERVED_SPECIMEN,KU
1193,Sylvilagus cunicularius cunicularius,"HUACALAPA, 4 KM E OF; SIERRA DE OMILTEME",Guerrero,17.4798765,-99.5773295,1948-05-29,PRESERVED_SPECIMEN,KU
1194,Sylvilagus floridanus subcinctus,"AMECA, 1 MI SSE OF",Jalisco,20.5348862,-104.0418739,1949-03-22,PRESERVED_SPECIMEN,KU
1195,Sylvilagus floridanus subcinctus,"GUADALAJARA, 19 MI S, 9 MI W OF; TOP OF CERRO VIEJO DE CUYUT",Jalisco,20.4009884,-103.4853794,1949-02-16,PRESERVED_SPECIMEN,KU
1196,Lepus callotis callotis,"TECOLOTLAN, 3.5 MI S OF",Jalisco,20.1524178,-104.0491115,1949-02-10,PRESERVED_SPECIMEN,KU
1197,Romerolagus diazi,"MEXICO CITY, 31 KM S OF",Ciudad de México,19.1495201,-99.1301026,1949-05-01,PRESERVED_SPECIMEN,KU
1198,Sylvilagus brasiliensis truei,POTRERO LLANO,Veracruz,21.0733018,-97.7337701,1949-02-15,PRESERVED_SPECIMEN,KU
1199,Sylvilagus cunicularius cunicularius,"ACULTZINGO, 3 KM W OF",Veracruz,18.7203787,-97.3270025,1948-12-05,PRESERVED_SPECIMEN,KU
1200,Sylvilagus floridanus connectens,TEOCELO,Veracruz,19.3859045,-96.9717192,1949-01-30,PRESERVED_SPECIMEN,KU
1201,Sylvilagus floridanus connectens,OZULAMA,Veracruz,21.6616312,-97.8506369,1949-02-09,PRESERVED_SPECIMEN,KU
1202,Sylvilagus floridanus connectens,OZULAMA,Veracruz,21.6616312,-97.8506369,1949-02-09,PRESERVED_SPECIMEN,KU
1203,Sylvilagus floridanus connectens,OZULAMA,Veracruz,21.6616312,-97.8506369,1949-02-09,PRESERVED_SPECIMEN,KU
1204,Sylvilagus floridanus connectens,POTRERO LLANO,Veracruz,21.0733018,-97.7337701,1949-02-12,PRESERVED_SPECIMEN,KU
1205,Sylvilagus floridanus connectens,POTRERO LLANO,Veracruz,21.0733018,-97.7337701,1949-02-12,PRESERVED_SPECIMEN,KU
1206,Romerolagus diazi,"TLALMANALCO, 3 KM W OF; LLANO GRANDE",México,19.2050734,-98.8328737,1948-02-11,PRESERVED_SPECIMEN,KU
1207,Sylvilagus cunicularius cunicularius,CHAPULTEPEC; CASA DEL LAGO,Ciudad de México,19.4183963,-99.1678824,1944-05-23,PRESERVED_SPECIMEN,KU
1208,Sylvilagus audubonii parvulus,IXMIQUILPAN,Hidalgo,20.482791,-99.2192763,1948-02-12,PRESERVED_SPECIMEN,KU
1209,Sylvilagus cunicularius cunicularius,"TEHUIXTLA, 0.5 MI W OF",Morelos,18.5601025,-99.2784371,1947-07-13,PRESERVED_SPECIMEN,KU
1210,Sylvilagus floridanus orizabae,MEXICO; BOSQUE DE CHAPULTEPEC,Ciudad de México,19.4045079,-99.195383,1947-05-27,PRESERVED_SPECIMEN,KU
1211,Sylvilagus floridanus orizabae,"MONUMENTO A OBREGON, 2 MI S OF; PEDREGAL DE SAN ANGEL",Ciudad de México,19.3192339,-99.1862155,1947-04-22,PRESERVED_SPECIMEN,KU
1212,Sylvilagus cunicularius cunicularius,"ACULTZINGO, 3 KM W OF",Veracruz,18.7203787,-97.3270025,1947-10-07,PRESERVED_SPECIMEN,KU
1213,Sylvilagus floridanus connectens,POTRERO VIEJO,Veracruz,18.876667,-96.840556,1947-10-04,PRESERVED_SPECIMEN,KU
1214,Sylvilagus floridanus connectens,"BOCA DEL RIO, 3 KM W OF",Veracruz,19.1014752,-96.1375315,1947-12-17,PRESERVED_SPECIMEN,KU
1215,Sylvilagus floridanus connectens,"PAPANTLA, 9 KM E OF",Veracruz,20.4483547,-97.2289509,1947-11-17,PRESERVED_SPECIMEN,KU
1216,Sylvilagus audubonii arizonae,"CORNELIO, 5 MI N OF",Sonora,30.0039262,-111.1337503,1948-04-26,PRESERVED_SPECIMEN,KU
1217,Sylvilagus audubonii arizonae,"CORNELIO, 5 MI N OF",Sonora,30.0039262,-111.1337503,1948-04-26,PRESERVED_SPECIMEN,KU
1218,Lepus alleni palitans,"NOCHE BUENA, 1 MI N, 5.5 MI W OF",Sonora,28.1980603,-111.1072372,1948-04-18,PRESERVED_SPECIMEN,KU
